StationID,StationName,DisplayName,Latitude,Longitude,Elevation,City,ZipCode,TzTimeZone,StateCode,StateDesc,CountryCode,CountryDesc,CountyName
13497,PAHL,PAHL,65.7,-156.35,,,99746,America/Anchorage,,,,,
14111,KECU,KECU,29.95,-100.17,,,78880,America/Chicago,,,,,
15042,PALP,Alpine Airstrip,70.3442,-150.9447,18,Deadhorse,99704,US/Alaska,AK,Alaska,,,
21671,K4O4,NW of Idabel Airport,33.92,-94.87,472,Idabel,74728,US/Central,OK,Oklahoma,US,United States of America,
22269,PAHC,Holy Cross Airport,62.1883,-159.7749,70,Holy Cross,99665,US/Alaska,AK,Alaska,,,
22270,PAOO,Toksook Bay Airport,60.5413,-165.0872,59,Toksook Bay,99690,US/Alaska,AK,Alaska,,,
22271,PAIG,Igiugig Airport,59.324,-155.9017,90,Igiugig,99625,US/Alaska,AK,Alaska,,,
22272,PAMB,Manokotak Airport,58.98,-159.05,0,Manokotak,99628,US/Alaska,AK,Alaska,,,
22273,PACM,PACM,61.85,-165.57,,,99604,America/Anchorage,,,,,
22274,PALG,Kalstag Airport,61.5362,-160.3413,55,Kalstag,99607,US/Alaska,AK,Alaska,,,
22275,PAMO,Mountain Village Airport,62.0953,163.682,335,Mountain Village,,US/Alaska,AK,Alaska,,,
22276,PARS,Russian Mission Airport,61.7748,161.3193,51,Russian Mission,,US/Alaska,AK,Alaska,,,
23971,KHAI,KHAI,41.96,-85.59,,,49093,America/New_York,,,,,
23770,PATQ,PATQ,70.4672,-157.4357,96,Atqasuk,99791,US/Alaska,AK,Alaska,,,
27687,YSRI,RAAF Base Richmond - NW of Schofields ,-33.6006,150.7808,69,Hocksbury,,Australia/Canberra,,,AU,Australia,
64980,SDAY,Fazenda Altair Airport,-20.58,-49.0797,2034,Altair  ,,US/Eastern,,,BR,Brazil,
65136,SAUY,Tardamu Airport,-10.4278,121.8978,46,,,Asia/Krasnoyarsk,,,ID,Indonesia,
65147,VISR,Srinagar Airport,34.0103,74.7681,5485,,,Asia/Kolkata,,,IN,India,
65160,T019,Brewerton Creek,41,174,908,Tasman,,Pacific/Fiji,,,NZ,New Zealand,
65163,VIKO,Kota Airport,29.1653,75.8453,896,Kota - Rajastan,,Asia/Kolkata,,,IN,India,
65174,VIJO,Jodhpur Airport,26.2511,73.0489,919,Jodhpur,,Asia/Kolkata,,,IN,India,
65185,VEBN,Lal Bahadur Shastri Airport,,82.8644,866,Lal Bahadur,,Asia/Kolkata,,,IN,India,
65187,VAAU,Aurangabad Airport,19.8628,,1911,Aurangabad,,Asia/Kolkata,,,IN,India,
65188,VIDD,Safdarjung Airport,28.5844,77.2058,705,Safdarjung ,,Asia/Kolkata,,,IN,India,
65190,VABV,Chhatrapati Shivaji International Airport,19.0886,,37,,,Asia/Kolkata,,,IN,India,
65191,VAPR,Porbandar Airport,21.6486,69.6572,17,,,Asia/Kolkata,,,IN,India,
65192,VOMY,Mysore Airport,12.23,76.6558,2347,Mysore,,Asia/Kolkata,,,IN,India,
65199,VIAG,Agra Airport,27.1575,77.9608,551,,,Asia/Kolkata,,,IN,India,
65219,VARP,VARP,21.1811,81.7385,1041,"Mana, Raipur",,Asia/Kolkata,,,IN,India,
65019,EDEN,El Edén International Airport,4.4525,-75.7664,,La Tabaida,,America/Santiago,,,CO,Colombia,
65029,VCRA,Puerto Cabezas Airport,14.0472,,69,Puerto Cabezas,,Mexico/General,,,NI,Nicaragua,
65228,SPJC,Lima Jorge Chavez International Airport,,,113,Lima,,America/Belize,,,PE,Peru,
65230,VAJJ,Juhu Aerodrome,19.0981,72.8339,13,Juhu,,Asia/Kolkata,,,IN,India,
60915,ZWYN,Yining Airport - NE of Yining,43.9558,81.3302,2185,Yining,,Asia/Hong_Kong,,,CN,China,
60605,SGEN,Encarnacion Airport - NW of Encarnacion,-27.2999,-55.91,278,Encarnacion,,America/Santiago,,,PY,Paraguay,
60712,K110,Cabo Frio Airport - SW of Cabo Frio,-22.9217,-42.0742,23,Cabo Frio,,Brazil/East,,,BR,Brazil,
60791,NFNS,Savusavu Airport,-16.8027,179.3405,43,Savasavu,,Pacific/Fiji,,,FJ,Fiji Islands,
60795,MGGT,La Aurora International Airport,14.5816,-90.5266,4951,Guatamala City,,America/Belize,,,GT,Guatemala,
60799,NTAT,Fa'a'a International Airport - SW of Papeete,-17.5566,-149.6113,5,Papeete,,US/Aleutian,,,FJ,Fiji Islands,
60837,SURV,Rivera International Airport - SE of Rivera,-30.9744,-55.4761,712,Rivera,,America/La_Paz,,,UY,Uruguay,
59501,SBCD,Carlos Alberto da Costa Neves Airport,-26.7897,-50.9394,3376,Caçador,,Brazil/East,,,BR,Brazil,
59508,ZGZJ,NW of Zhanjiang,21.2175,110.3577,125,Khanjiang,,Asia/Hong_Kong,,,CN,China,
59509,ZLIC,Yinchuan/Hedong Airport,38.3216,106.3925,3714,Yinchuan/Hedong,,Asia/Hong_Kong,,,CN,China,
59566,ETGI,Idar-Oberstein Airport - NE of Odenbach,49.7114,7.731,1237,Odenbch,,Europe/Copenhagen,,,DE,Germany,
59569,KOSL,Oslo Airport - NE of Oslo,60.2027,11.0838,681,Gardermoen,,Europe/Sarajevo,,,NO,Norway,
59624,ARND,Rand Airport,-26.2425,28.1511,5482,Germinston,,Europe/Bucharest,,,ZA,South Africa,
59638,ZKPY,Sunan (CAPITAL) Airport,39.2,125.6669,0,Pyongyang,,Asia/Seoul,,,KP,North Korea,
59845,VEBD,Bagdogra Airport,26.6811,88.3286,412,,,Asia/Kolkata,,,IN,India,
60105,PFCL,Clarks Point Airport,58.8336,-158.5293,65,Clarks Point,99569,US/Alaska,AK,Alaska,US,United States of America,
60309,RCKU,Chiayi Airport - SW of Chiayu,23.4617,120.3929,82,Chiayi,,Asia/Hong_Kong,,,TW,Taiwan,
60310,RCMQ,Taichung Airport,24.2646,120.6205,663,Taichung,,Asia/Hong_Kong,,,TW,Taiwan,
60311,RCNN,Tainan Airport - NE of Pei-kang,23.5833,120.3333,64,Pei-kang,,Asia/Hong_Kong,,,TW,Taiwan,
60312,RCQC,Magong Airport - NE of Makung,23.5686,119.6283,103,Makung,,Asia/Hong_Kong,,,TW,Taiwan,
60313,RCYU,Hualien Airport,24.023,21.6177,52,Hua-lien,,Asia/Hong_Kong,,,TW,Taiwan,
27688,YWLM,NE of Newcastle - Newcastle Airport (Williamtown),-32.795,151.8344,31, Newcastle,,Australia/Canberra,,,AU,Australia,
27689,YMLT,Launceston Airport - SE of Launceston Tasmania,-41.5453,147.2142,561,Launceston,,Australia/Canberra,,,AU,Australia,
27690,YMHB,NE of Hobart - Tasmania,-42.8339,147.5033,89,Hobart,,Australia/Canberra,,,AU,Australia,
27691,YPGV,Gove Airport - Yirrkala NT - SW of Yirrkala,-12.2733,136.8233,194,Yirrkala,,Australia/Darwin,,,AU,Australia,
27692,YAMB,Ipswitch/Amberley Ab Airport - SW of Ipswich,-27.6297,152.7111,91,Ipswich,,Australia/Brisbane,,,AU,Australia,
27693,YBMA,Mount Isa Airport,-20.6778,139.4875,1119,Mount Isa,,Australia/Brisbane,,,AU,Australia,
27571,YPPH,Perth Airport - NE of Perth,-31.9275,115.9761,66,Perth,,Australia/West,,,AU,Australia,
27668,YSSY,Sydney Airport - SE of Sydney,-33.9465,151.1731,20,Sydney,,Australia/Canberra,,,AU,Australia,
27669,YMML,Melbourne Tullamarine Airport -  NW of Tullamarine,-37.6655,144.8321,390,Tullamarine,,Australia/Canberra,,,AU,Australia,
27670,YBBN,Brisbane International Airport - NE of Brisbane,-27.3917,153.1292,16,Brisbane,,Australia/Brisbane,,,AU,Australia,
27671,YPAD,Adelaide Airport - SW of Adelaide,-34.9524,138.5204,20,Adelaide,,Australia/Adelaide,,,AU,Australia,
27672,YPDN,Darwin International Airport - NE of Darwin,-12.424,130.8925,98,Darwin,,Australia/Darwin,,,AU,Australia,
27673,YBCS,Cairns Airport - NW of Cairns,-16.8736,145.7458,10,Cairns,,Australia/Brisbane,,,AU,Australia,
27674,YBAS,Alice Springs Airport- SE of Alice Springs,-23.7951,133.889,1795,Alice Springs,,Australia/Darwin,,,AU,Australia,
27675,YPLM,Learmouth Airport - SE of Exmouth,-22.2406,114.0967,16,Exmouth,,Australia/West,,,AU,Australia,
27676,YBTL,Townsville International Airport - NW of Townsville,-19.2483,146.7661,20,Townsville,,Australia/Brisbane,,,AU,Australia,
27677,YPTN,RAAF Base Tindal / Katherine Tindal - SE of Katherine,-14.5229,132.3826,443,Katherine,,Australia/Darwin,,,AU,Australia,
27678,YPKU,Kununurra Airport - SW of Kununurra,-15.7814,128.71,144,Kununurra,,Australia/West,,,AU,Australia,
27679,YSCB,Canberra International Airport - NE of Canberra,-35.3088,149.2003,1896,Canbarra,,Australia/Canberra,,,AU,Australia,
27680,YBCG,Gold Coast Airport,-28.1681,153.5053,20,Coolangatta,,Australia/Canberra,,,AU,Australia,
27681,YMAV,Avalon Airport - NE of Lara,-38.0286,144.4783,26,Avalon,,Australia/Canberra,,,AU,Australia,
27682,YBRK,Rockhampton Airport - NW of Rockhampton,-23.3753,150.4775,49,Rockhampton,,Australia/Brisbane,,,AU,Australia,
27683,YPKG,Kalgoorlie-Boulder Airport - SE of Kalgoorlie,-30.7847,121.4533,1204,Kalgoorlie,,Australia/West,,,AU,Australia,
27684,YPPD,Port Hedland International Airport - SE of Port Hedland,-20.3725,118.6317,20,Port Hedland,,Australia/West,,,AU,Australia,
27685,YBRM,Broome International Airport - NE of Broome,-17.9475,122.2353,30,Broome,,Australia/West,,,AU,Australia,
27686,YSNF,Norfolk Island Airport,-29.0389,167.9408,384,Kingston,,Pacific/Norfolk,,,AU,Australia,
27864,NZWN,Wellington Airport,-41.3272,174.8053,39,Wellington,,NZ,,,NZ,New Zealand,
27877,YPEA,Pearce (Military) - NE of Wanneroo,-31.6669,116.0189,148,Pearce,,Australia/West,,,AU,Australia,
27879,YTNK,Tennant Creek Airport,-19.6344,134.1833,1236,Tennant Creek,,Australia/Darwin,,,AU,Australia,
27896,NZAA,Aukland International Airport,-37.0081,174.7917,23,Aukland,,NZ,,,NZ,New Zealand,
27935,YWHA,Whyalla Airport,-33.0539,137.5206,41,Whyalla,,Australia/Adelaide,,,AU,Australia,
27969,YSWG,Wagga Wagga Airport - SE of Wagga Wagga,-35.1583,147.4572,699,Wagga Wagga,,Australia/Canberra,,,AU,Australia,
28021,NZPG,Pegasus Field Weather,-77.95,166.52,16,Pegasus Field,,NZ,,,NZ,New Zealand,
28027,NZWD,Williams Field,-77.88,166.65,39,Antarctica,,NZ,,,NZ,New Zealand,
28119,YTRE,Taree Airport - NE of Taree,-31.8886,152.5139,39,Taree,,Australia/Canberra,,,AU,Australia,
28123,YPCC,Cocos (Keeling) Islands Airport,-12.1892,96.8344,10,West Island,,Asia/Rangoon,,,AU,Australia,
28125,YSTW,Tamworth Regional Airport - NW of Tamworth,-31.0839,150.8467,1345,Tamworth,,Australia/Canberra,,,AU,Australia,
27785,NZSP,South Pole Station,-90,0,9285,Amunden,,NZ,,,NZ,New Zealand,
27804,YSDU,Dubbo City Regional Airport - NW of Dubbo,-32.2167,148.5747,902,Dubbo,,Australia/Canberra,,,AU,Australia,
28195,YPXM,Christmas Island Airport,-10.4506,105.6903,860,Christmas Island,,Asia/Bangkok,,,AU,Australia,
28227,YFRT,Forrest Airport,-30.8452,128.109,525,Forest,,Australia/West,,,AU,Australia,
28379,YTEF,Telfer Airport - SE of Telfer,-21.715,122.2286,974,Telfer,,Australia/West,,,AU,Australia,
28386,YBHM,Great Barrier Reef Airport,-20.3581,148.9517,16,Hamilton Island,,Australia/Brisbane,,,AU,Australia,
28402,YCIN,RAAF Base Curtin - SE of Durby,-17.5814,123.8283,300,Derby,,Australia/West,,,AU,Australia,
28892,NZWP,Whenuapai Air Force Base,-36.78,174.63,98,Whenuapai,,NZ,,,NZ,New Zealand,
28939,NZOH,Ohakea Air Force Base,-40.2,175.37,164,Ohakea,,NZ,,,NZ,New Zealand,
22037,CXVN,Vineland Ontario (AU8),43.18,-79.4,259,Vineland ,14144,US/Eastern,,,CA,Canada,
22099,CWIP,Pointe Noire CS,50.1666,-66.4333,82,"POINTE NOIRE /QUE.,",4785,US/Eastern,,,CA,Canada,
25095,NZCH,Christchurch International Airport,-43.4833,172.55,125,Christchurch,,NZ,,,NZ,New Zealand,
30815,NZIR,McMurdo Station Ice Runway,-77.87,166.53,7,Ice Runway,,NZ,,,NZ,New Zealand,
30818,YPWR,Woomera Ab Airport - NW of Woomera,-31.1558,136.8054,548,Woomera,,Australia/Adelaide,,,AU,Australia,
33573,NZCM,Williams Field,-77.87,166.97,26,Williams,,NZ,,,NZ,New Zealand,
42226,YGEL,Geraldton Airport - SE of Geraldton,-28.8044,114.6989,121,Geraldon,,Australia/West,,,AU,Australia,
42227,YHID,Horn Island Airport,-10.5844,142.29,43,Horn Island,,Australia/Brisbane,,,AU,Australia,
42228,YPJT,Perth Jandakot Airport - SE of Perth,-32.1011,115.8794,99,Perth,,Australia/West,,,AU,Australia,
43012,YCFS,Compressor Station 4 - SE of Coffs Harbour,-30.3108,153.1186,537,Coffs Harbour,,Australia/Canberra,,,AU,Australia,
45640,D6266,SE of Arezzo,43.43,11.89,919,Arezzo,,Europe/Belgrade,,,IT,Italy,
50177,K6B0,Middlebury State Airport - NE of East Middlebury,43.9854,-73.0954,0,East Middlebury,5753,US/Eastern,VT,Vermont,US,United States of America,
53452,LIQJ,Civitavecchia Airport,42.0328,11.8331,13,Santa Marinella,,Europe/Copenhagen,,,IT,Italy,
53498,MGCP,Champerico,14.307,-91.899,36,Champerico,,America/Belize,,,GT,Guatemala,
53517,CDTE,Guillermo D Castillo Airport,6.5055,76.338,868,Tarapoto,,America/Lima,,,PE,Peru,
53726,SPPY,Chachapoyas Airport,-6.2018,-77.856,6496,Chachapoyas,,America/Lima,,,PE,Peru,
54385,MM20,Cordoba Airport - SW of Cordoba,18.8741,-96.9581,3000,Cordoba,,US/Pacific,,,MX,Mexico,
54612,SFAL,Port Stanley Airport,51.6856,-57.7776,75,Stanley,,Brazil/East,,,FK,Falkland Islands,
54660,FZFG,Bokata Airport,4.117,19.4169,1647,Bokata,,Africa/Johannesburg,,,CD,Democratic Republic of the Congo (formerly Zaire),
54803,N033,Larnaca International Airport - SW of Larnca,34.8788,33.6302,0,Larnaca,,Egypt,,,CY,Cyprus,
54806,MM32,Puerto Libertad North Airport - NW of La Libertad,29.9214,112.6606,148,Pueto Libertad North,,US/Mountain,,,MX,Mexico,
54807,MM26,San Ignacio 1 Airport - NW of San Ignacio,27.2966,-112.9383,400,San Ignacio,,US/Pacific,,,MX,Mexico,
55216,SBUY,Porto Ucucu,-4.884,-113.6,0,Porto Ucucu,,Brazil/East,,,BR,Brazil,
55217,SBTC,NE of Canandatuba,-15.3552,-38.999,20,Camandatuba,,Brazil/East,,,BR,Brazil,
55219,SBAX,Araxa Airport - NW of Araxa,-19.5632,-46.9604,3274,Araxa,,Brazil/East,,,BR,Brazil,
55221,SBSR,São José do Rio Preto Airport,-20.8166,-49.4065,1781, São José do Rio Preto ,,Brazil/East,,,BR,Brazil,
55222,SBJU,Orlando Bezerra de Menezes Airport,-7.219,-39.2701,1342,Juareziro De Norte,,Brazil/East,,,BR,Brazil,
55224,SBIP,Usiminas/paraiso - NE of Ipatinga,-19.4707,-42.4876,784,Ipatinga,,Brazil/East,,,BR,Brazil,
55226,SBLB,Plataforma P-25 Airport - SE of Campos,-22.1094,-39.9169,33,Plataforma P-25 Airport,,Brazil/East,,,BR,Brazil,
55266,SBLE,Lencois Chapada Airport - NE of Lencois,-12.4833,-41.273,1676,Chapada Diamantina,,Brazil/East,,,BR,Brazil,
55279,SKAS,Puerto Asis/Tres De Mayo Airport  - SE of Puerto Asis,0.5051,-76.5009,815,Puerto Asis,,America/Lima,,,CO,Colombia,
55029,MM23,Rancho Santa Ynes Airport - Baja - NW of Santa Ynes,29.7259,-114.699,1843,Rancho Santa Ynes,,US/Pacific,,,MX,Mexico,
55030,MM29,Ta Lo De Soto Airport - Se of Cuajinicuilapa,16.4634,-98.3929,490,Ta Lo De Soto,,Mexico/General,,,MX,Mexico,
55063,TEMP,Willis-Knighton Medical Center Temp Groundlevel Heliport,32.4862,-93.7779,253,Shreveport,71103,US/Central,LA,Louisiana,US,United States of America,
55950,SKFL,Florencia/Gustavo A ParedesAirport - SE of Florencia,1.5891,-75.5644,803,Florencia,,America/Lima,,,CO,Colombia,
55951,SKGI,Thessaloniki Airport - SE of Thessaloniki,40.5197,22.9708,0,Thessaloniki,,Europe/Istanbul,,,GR,Greece,
56109,SKCO,La Florida Airport,1.8144,-78.7491,8,Tumaco,,America/Lima,,,CO,Colombia,
56123,CWIY, St Leonard Airport,47.1578,-67.8319,804,St. Leonard,,Canada/Atlantic,,,CA,Canada,
56124,CWHP,Heath Point Airport,49.0666,-61.7,13,Heath Point,,Etc/GMT+3,,,CA,Canada,
56125,WAJJ,Sentani Airport - SW of Jayapura,-2.5769,140.5161,289,Jayapura,,Australia/Tasmania,,,ID,Indonesia,
56207,REFG,Reggio Calabria Airport,38.0719,15.6536,96,Reggio di Calabria,,Europe/Sarajevo,,,IT,Italy,
56304,VLSK,Valencia Airport - NW of Valencia,39.4894,-0.4816,0,Valencia,,Europe/Belgrade,,,ES,Spain,
56363,SEGS,Seymore Airport - NE of Bellavista,-0.4538,-90.2658,207,Santa Cruz Galapagos Islands,,US/Central,,,EC,Equador,
56742,SVCN,Canaima Airport - NW of Cano Negro,6.2319,-62.8541,1449,Canaima,,Brazil/East,,,VE,Venezuela,
57035,MM30,Campo Gobierno Airport - SE of Campo Vital,24.6585,-107.5523,43,Campo Gobierno ,,US/Pacific,,,MX,Mexico,
57094,ZUGY,Guilin Intl Airport,26.5385,106.801,3524,Guiyang,,Asia/Hong_Kong,,,CN,China,
57178,W031,Corvo Airport,39.6715,-31.1136,0,Azores,,Europe/Dublin,,,PT,Portugal,
57180,LTBD,Aydin Airport,37.85,27.85,184,Aydin,,Europe/Istanbul,,,TR,Turkey,
57274,NCAI,Cook Islands - Aitutaki Amuri Fld AAF,-18.8309,-159.7642,16,Arutunga,,US/Aleutian,,,NZ,New Zealand,
57348,LICB,Comiso Airport - NE of Comiso,36.9916,14.6069,620,Comiso,,Europe/Belgrade,,,IT,Italy,
57525,TRPG,Geralds|Gerald's John A. Osborne Airport - NE of Plymouth,16.7914,-62.1933,551,Montserrat,,Canada/Atlantic,,,GB,United Kingdom,
57595,TRPG,Geralds|Gerald's John A. Osborne Airport - NE of Plymouth,16.7914,-62.1933,551,Montserrat,,Canada/Atlantic,,,GB,United Kingdom,
57619,SEQM,Mariscal Sucre International Airport - NE of Quinto,-0.1242,-78.3544,7874,Quinto,,Europe/Dublin,,,EC,Equador,
57606,CITY,London City Airport - SE of London,51.5052,0.0552,19,London,,Europe/Dublin,,,GB,United Kingdom,
57723,LTAL,Kastamonu Airport - SE of Kastamonu,41.3169,33.7961,3520,Kastamonu,,Atlantic/South_Georgia,,,TR,Turkey,
57763,SKMU,Alberto Leon Bentley Airport - SW of Mity,1.2536,-70.2338,680,Mitu,,US/Eastern,,,CO,Colombia,
58095,SKBS,José Celestino Mutis Airport - NW of Quibdo,6.2027,-77.3944,80,Bahia Solano,,US/Eastern,,,CO,Colombia,
58096,SKBU,Buennaventura (Gerado Tobar Lopez Airport - SE of Buenaventura,3.8197,-76.9897,48,Buenaventura,,US/Eastern,,,CO,Colombia,
58097,SKGP,Guapi Juan Casiano,2.5722,77.9077,164,Guapi,,US/Eastern,,,CO,Colombia,
58098,SKQU,Mariquita Airport,5.2019,74.8841,1531,Mariquita,,US/Eastern,,,CO,Colombia,
58099,SKSJ,Jorge Enrique González Torres Airport,2.5797,-72.6391,604, San José del Guaviare,,US/Eastern,,,CO,Colombia,
58182,PPDD,Pandie Pandie Airport - SE of Alice Springs,-26.1166,139.3999,0,Pandie Pandie,,Australia/Adelaide,,,AU,Australia,
58230,ZYYJ,SW of Yanji,42.8828,129.4512,624,Yanji,,Asia/Hong_Kong,,,CN,China,
58231,MUSA,Abu Musa Airport - NW of Dubai,25.8755,55.0327,23,Abu Mesa Island,,Asia/Dubai,,,IR,Iran,
58302,MPVR,El Povenir Airport,9.5634,-79.004,17,El Porvenir,,America/Lima,,,PA,Panama,
58349,NCPY,Tongareva Airport - Penrhyn Island - Cook Islands,-9.0061,-158.0364,7,Penrhyn,,US/Aleutian,,,NZ,New Zealand,
58440,MPOA,Puerto Obaldia Airport,3.6663,77.4163,3,Puerto Obaldia,,US/East-Indiana,,,PA,Panama,
58445,ARLY,Arly Airport,11.5963,1.4805,761,Burkina Faso,,Europe/Dublin,,,ZA,South Africa,
58477,ZLYA,Yan'an Ershilipu Airport - NE of Yan'an,36.6369,9.5538,3100,Yan'an,,Asia/Hong_Kong,,,CN,China,
58712,VOCB,Coimbatore International Airport,11.0266,77.0416,1311,Coimbatore,,Asia/Kolkata,,,IN,India,
58862,SBBS,ST. Helena Akrport - Brasillia,-15.8627,-47.9127,-1265,Brasillia,,Brazil/East,,,BR,Brazil,
58936,MMXX,Benito Juárez International Airport,19.4363,-99.072,7316,Mexico City,,US/Pacific,,,MX,Mexico,
58939,YBCV,Charleville Airport,-26.4139,146.2558,994,Charleville,,Pacific/Guam,,,AU,Australia,
58940,YBMK,Mackay Airport - SE of Mackey,-21.1172,149.2169,98,Mackey,,Australia/Tasmania,,,AU,Australia,
58942,YBPN,Whitsunday Coast Airport - SW of Proserpine,-20.4925,148.555,66,Proserpine,,Pacific/Guam,,,AU,Australia,
58943,YMAY,Albury Airport - NE of Albury,-36.0686,146.9633,541,Albury,,Australia/Canberra,,,AU,Australia,
58945,YBWP,Weipa Airport - SE of Weipa,-12.6167,142.0869,128,Weipa,,Australia/Canberra,,,AU,Australia,
59127,VEIM,Imphal International Airport,24.76,93.8966,2540,Imphal,,Asia/Kolkata,,,IN,India,
59129,VEGT,Lokpriya Gopinath Bordoloi International Airport - SW of Guwahati,26.1061,91.5858,162,Guwahati,,Asia/Kolkata,,,IN,India,
59023,KN03,Cortland County Airport-Chase Field,42.5926,-76.2148,1198,Cortland,13045,US/Eastern,NY,New York,US,United States of America,
59451,SVLC,El Lucero de Apure Airport,6.9833,-68.0667,262,Apure,,America/Lima,,,VE,Venezuela,
8687,PAKV,Kaltag Airport,64.33,-158.71,52,Kaltag,99704,US/Alaska,AK,Alaska,US,United States of America,
8688,PAGL,Golovin Airport,64.55,-163.05,8,Golovin,99704,US/Alaska,AK,Alaska,US,United States of America,
9576,PAFK,Tin Creek Airport,62.54,-153.62,321,Tin Creek,99611,US/Alaska,AK,Alaska,US,United States of America,
10304,PAVL,Kivalina Airport,67.74,-164.53,3,Kivalina,99704,US/Alaska,AK,Alaska,US,United States of America,
5426,PAGA,Edward G. Pikta Sr. Airport,64.73,-156.93,151,Galena,99704,US/Alaska,AK,Alaska,US,United States of America,
5428,PAGK,Gulkana Airport,62.15,-145.45,1575,Gulkana,99737,US/Alaska,AK,Alaska,US,United States of America,
5429,PAGM,Gambell Airport,63.77,-171.73,26,Gambell,99704,US/Alaska,AK,Alaska,US,United States of America,
5430,PAGN,Angoon Seaplane Base,57.5,-134.58,36,Angoon,99801,US/Alaska,AK,Alaska,US,United States of America,
5431,PAGS,Gustavus Airport,58.42,-135.73,30,Gustavus,99801,US/Alaska,AK,Alaska,US,United States of America,
5433,PAGY,Skagway Airport,59.47,-135.3,23,Skagway,99801,US/Alaska,AK,Alaska,US,United States of America,
5436,PAHN,Haines Airport,59.25,-135.52,13,Haines,99801,US/Alaska,AK,Alaska,US,United States of America,
5437,PAHO,Homer Airport,59.65,-151.48,72,Homer,99603,US/Alaska,AK,Alaska,US,United States of America,
5438,PAHP,Hooper Bay,61.53,-166.15,16,Hooper Bay,99611,US/Alaska,AK,Alaska,US,United States of America,
5442,PAHY,Klawock Lake,55.2,-131.17,0,Klawock,99901,US/Alaska,AK,Alaska,US,United States of America,
5444,PAII,Becharof Lake,58.42,-156.63,390,Egegik,99615,US/Alaska,AK,Alaska,US,United States of America,
5446,PAIL,Iliamna Airport,59.75,-154.92,171,Iliamna,99556,US/Alaska,AK,Alaska,US,United States of America,
5448,PAIN,Lake Minchumina,63.73,-148.92,1719,Kantishna,99704,US/Alaska,AK,Alaska,US,United States of America,
5451,PAJC,Chignik Bay,56.32,-158.36,13,Chignik,99615,US/Alaska,AK,Alaska,US,United States of America,
5452,PAJN,Juneau International Airport,58.37,-134.58,16,Juneau,99801,US/Alaska,AK,Alaska,US,United States of America,
5456,PAKK,Akhiok Airport,56.94,-154.18,141,Akhiok,99615,US/Alaska,AK,Alaska,US,United States of America,
5457,PAKN,King Salmon Airport,58.68,-156.65,33,King Salmon,99615,US/Alaska,AK,Alaska,US,United States of America,
5459,PAKP,Anaktuvuk Pass Weather,68.13,-151.73,2110,Anaktuvuk Pass,99704,US/Alaska,AK,Alaska,US,United States of America,
5460,PAKT,Ketchikan International Airport,55.19,-131.36,82,Ketchikan,99901,US/Alaska,AK,Alaska,US,United States of America,
5461,PAKU,Kuparuk Airport,70.32,-148.42,66,Kuparuk,99701,US/Alaska,AK,Alaska,US,United States of America,
5462,PAKW,Klawock Lake,55.58,-133.08,59,Klawock,99901,US/Alaska,AK,Alaska,US,United States of America,
5463,PALH,Tatitlek Airport,61.18,-148.03,72,Tatitlek,99645,US/Alaska,AK,Alaska,US,United States of America,
5464,PALJ,Port Alsworth Airport,60.2,-154.3,266,Port Alsworth,99639,US/Alaska,AK,Alaska,US,United States of America,
5469,PAMC,McGrath Airport,62.97,-155.62,338,McGrath,99611,US/Alaska,AK,Alaska,US,United States of America,
5470,PAMD,Middleton Island Airport,59.43,-146.33,46,Middleton Island,99664,US/Alaska,AK,Alaska,US,United States of America,
5472,PAMH,Minchumina Airport,63.9,-152.27,702,Minchumina,99704,US/Alaska,AK,Alaska,US,United States of America,
5473,PAML,Manley Hot Springs Airport,65,-150.65,269,Manley Hot Springs,99704,US/Alaska,AK,Alaska,US,United States of America,
5474,PAMM,Skaters Lake,55.08,-131.35,3,Metlakatla,99901,US/Alaska,AK,Alaska,US,United States of America,
5475,PAMR,Merrill Field,61.2169,-149.855,138,Anchorage,99501,US/Alaska,AK,Alaska,US,United States of America,
5476,PAMX,McCarthy Number 2 Airport,61.43,-142.93,1493,McCarthy,99737,US/Alaska,AK,Alaska,US,United States of America,
5477,PAMY,Shoal Bay,60.39,-166.188,49,Mekoryuk,99639,US/Alaska,AK,Alaska,US,United States of America,
5478,PANC,Anchorage International Airport,61.169,-150.0278,144,Anchorage,99530,US/Alaska,AK,Alaska,US,United States of America,
5479,PANI,Aniak Airport,61.58,-159.53,85,Aniak,99611,US/Alaska,AK,Alaska,US,United States of America,
5480,PANN,Nenana Municipal Airport,64.55,-149.08,361,Nenana,99704,US/Alaska,AK,Alaska,US,United States of America,
5484,PANT,Annette Island,55.03,-131.57,112,Annette,99901,US/Alaska,AK,Alaska,US,United States of America,
5485,PANV,Aniak Airport,62.65,-159.82,325,Aniak,99611,US/Alaska,AK,Alaska,US,United States of America,
5486,PAOH,Klawock Lake,58.12,-135.45,0,Klawock,99801,US/Alaska,AK,Alaska,US,United States of America,
5487,PAOM,Nome Airport,64.52,-165.45,36,Nome,99704,US/Alaska,AK,Alaska,US,United States of America,
5488,PAOR,Northway Airport,62.97,-141.93,1716,Northway,99737,US/Alaska,AK,Alaska,US,United States of America,
5489,PAOT,Ralph Wien Memorial Airport,66.88,-162.6,16,Kotzebue,99704,US/Alaska,AK,Alaska,US,United States of America,
5490,PAPB,St George Island School,56.58,-169.64,125,St George Island,99615,US/Aleutian,AK,Alaska,US,United States of America,
5492,PAPG,Petersburg Airport,56.82,-132.97,0,Petersburg,99835,US/Alaska,AK,Alaska,US,United States of America,
5493,PAPH,Port Heiden Airport,56.95,-158.62,95,Port Heiden,99615,US/Alaska,AK,Alaska,US,United States of America,
5494,PAPM,Platinum Airport,59.02,-161.82,10,Platinum,99615,US/Alaska,AK,Alaska,US,United States of America,
5495,PAPO,Point Hope Airport,68.35,-166.8,13,Point Hope,99704,US/Alaska,AK,Alaska,US,United States of America,
5496,PAPT,Rainy Pass Lodge Airport,62.1,-152.75,1837,Puntilla Lake,99611,US/Alaska,AK,Alaska,US,United States of America,
5498,PAQT,Nuiqsut Airport,70.22,-149.02,56,Nuiqsut,99704,US/Alaska,AK,Alaska,US,United States of America,
5499,PARC,Arctic Village Airport,68.12,-145.57,2087,Arctic Village,99737,US/Alaska,AK,Alaska,US,United States of America,
5502,PASA,Savoonga Airport,63.68,-170.5,52,Savoonga,99704,US/Alaska,AK,Alaska,US,United States of America,
5503,PASC,Deadhorse Airport,70.2,-148.47,75,Deadhorse,99701,US/Alaska,AK,Alaska,US,United States of America,
5504,PASD,Sand Point Airport,55.32,-160.52,23,Sand Point,99615,US/Alaska,AK,Alaska,US,United States of America,
5505,PASH,Shishmaref Airport,66.27,-166.05,7,Shishmaref,99704,US/Alaska,AK,Alaska,US,United States of America,
5506,PASI,Sitka Rocky Guiterez Airport,57.07,-135.35,16,Sitka,99835,US/Alaska,AK,Alaska,US,United States of America,
5507,PASK,Selawik Airport,66.62,-160,26,Selawik,99704,US/Alaska,AK,Alaska,US,United States of America,
5508,PASL,Stony River,61.72,-156.85,177,Sleetmute,99611,US/Alaska,AK,Alaska,US,United States of America,
5509,PASM,Saint Marys Airport,62.07,-163.3,312,Pitkas Point,99611,US/Alaska,AK,Alaska,US,United States of America,
5510,PASN,Saint Paul Island Airport,57.15,-170.22,26,Saint Paul,99615,US/Aleutian,AK,Alaska,US,United States of America,
5511,PASO,Seldovia Airport,59.45,-151.69,30,Seldovia,99556,US/Alaska,AK,Alaska,US,United States of America,
5514,PASW,Skwentna Airport,61.97,-151.18,148,Skwentna,99611,US/Alaska,AK,Alaska,US,United States of America,
5515,PASX,Soldotna Airport,60.48,-151.03,108,Soldotna,99669,US/Alaska,AK,Alaska,US,United States of America,
5517,PATA,Ralph M. Calhoun Memorial Airport,65.17,-152.1,236,Tanana,99704,US/Alaska,AK,Alaska,US,United States of America,
5519,PATG,Togiak Airport,59.05,-160.4,20,Togiak,99615,US/Alaska,AK,Alaska,US,United States of America,
5521,PATK,Talkeetna Airport,62.3,-150.1,351,Talkeetna,99517,US/Alaska,AK,Alaska,US,United States of America,
5523,PATO,Tatitlek Airport,60.785,-148.8389,102,Tatitlek,99587,US/Alaska,AK,Alaska,US,United States of America,
5528,PAUN,Unalakleet Airport,63.88,-160.8,20,Unalakleet,99704,US/Alaska,AK,Alaska,US,United States of America,
5530,PAVD,Valdez Airport,61.13,-146.25,121,Valdez,99645,US/Alaska,AK,Alaska,US,United States of America,
5532,PAWD,Seward Airport,60.1269,-149.4186,23,Seward,99664,US/Alaska,AK,Alaska,US,United States of America,
5533,PAWG,Wrangell Airport,56.48,-132.37,43,Wrangell,99901,US/Alaska,AK,Alaska,US,United States of America,
5534,PAWI,Wainwright Airport,70.62,-159.85,30,Wainwright,99704,US/Alaska,AK,Alaska,US,United States of America,
5535,PAWN,Akiak Airport,60.7,-160.03,98,Akiak,99611,US/Alaska,AK,Alaska,US,United States of America,
5537,PAWS,South Naknek Number 2 Airport,58.7,-156.98,348,South Naknek,99615,US/Alaska,AK,Alaska,US,United States of America,
5539,PAYA,Monti Bay,59.55,-139.7276,36,Yakutat,99801,US/Alaska,AK,Alaska,US,United States of America,
5541,PAZK,Tazina Lake,61.93,-146.83,3287,Nelchina,99645,US/Alaska,AK,Alaska,US,United States of America,
5380,PAAK,40 Miles E,58.68,-155.32,56,King Salmon,99615,US/Alaska,AK,Alaska,US,United States of America,
5381,PAAP,Port Alexander Seaplane Base,56.25,-134.65,3,Port Alexander,99835,US/Alaska,AK,Alaska,US,United States of America,
5382,PAAQ,Palmer Municipal Airport,61.6,-149.08,230,Palmer,99645,US/Alaska,AK,Alaska,US,United States of America,
5384,PABE,Bethel Airport,60.78,-161.8,128,Bethel,99611,US/Alaska,AK,Alaska,US,United States of America,
5389,PABL,Buckland Airport,65.99,-161.12,30,Buckland,99704,US/Alaska,AK,Alaska,US,United States of America,
5390,PABN,10 Miles W,62.4,-143,2894,Nabesna,99737,US/Alaska,AK,Alaska,US,United States of America,
5391,PABR,Will Rogers Memorial Airport,71.3,-156.78,36,Barrow,99704,US/Alaska,AK,Alaska,US,United States of America,
5392,PABT,Bettles Airport,66.92,-151.52,643,Bettles,99704,US/Alaska,AK,Alaska,US,United States of America,
5393,PABV,Butte Municipal Airport,61.42,-148.48,95,Butte,99645,US/Alaska,AK,Alaska,US,United States of America,
5394,PACD,Cold Bay Airport,55.2,-162.73,95,Cold Bay,99615,US/Alaska,AK,Alaska,US,United States of America,
5399,PACV,Merie K. Smith Airport,60.5,-145.5,59,Crystal Falls,99737,US/Alaska,AK,Alaska,US,United States of America,
5402,PADE,Deering Airport,66.08,-162.75,16,Deering,99704,US/Alaska,AK,Alaska,US,United States of America,
5403,PADK,Adak Airport,51.88,-176.65,13,Adak,99615,US/Aleutian,AK,Alaska,US,United States of America,
5404,PADL,Dillingham Airport,59.05,-158.52,95,Dillingham,99615,US/Alaska,AK,Alaska,US,United States of America,
5405,PADQ,Kodiak Airport,57.75,-152.5,108,Kodiak,99615,US/Alaska,AK,Alaska,US,United States of America,
5407,PADU,Unalaska Airport,53.9,-166.55,13,Dutch Harbor,99615,US/Alaska,AK,Alaska,US,United States of America,
5408,PAEC,10 Miles N,62.88,-149.83,1250,Chase,99654,US/Alaska,AK,Alaska,US,United States of America,
5410,PAEG,Eagle Airport,64.78,-141.14,896,Eagle,99737,US/Alaska,AK,Alaska,US,United States of America,
5413,PAEL,Klawock Lake,58.2,-136.35,10,Klawock,99801,US/Alaska,AK,Alaska,US,United States of America,
5414,PAEM,Skwentna Airport,62.77,-164.5,10,Skwentna,99611,US/Alaska,AK,Alaska,US,United States of America,
5415,PAEN,Kenai Municipal Airport,60.57,-151.25,85,Kenai,99611,US/Alaska,AK,Alaska,US,United States of America,
5417,PAFA,Fairbanks International Airport,64.82,-147.87,463,Fairbanks,99709,US/Alaska,AK,Alaska,US,United States of America,
5419,PAFE,Klawock Lake,56.9614,-133.9103,171,Klawock,99835,US/Alaska,AK,Alaska,US,United States of America,
5421,PAFM,Kobuk Valley Park & Wilderness,67.1,-157.85,289,Ambler,99704,US/Alaska,AK,Alaska,US,United States of America,
584,CWAB,Trowbridge Airport - SE of Thunder Bay,48.283,-88.8666,715,Trowbridge,,US/Eastern,ON,Ontario,CA,Canada,
585,CWAC,Nitinat Lake Airport - NW of Saanich,48.667,-124.333,135,Saanich,,US/Pacific,BC,British Columbia,CA,Canada,
586,CWAD,Cape Mudge Indian Reserve - NE of Campbel River,50,-125,13,Campbell River,,US/Pacific,BC,British Columbia,CA,Canada,
587,CWAE,Whisler Airport - NE of Whisler,50.13,-122.95,2159,Whistler,,US/Pacific,BC,British Columbia,CA,Canada,
588,CWAF,Ile Rouge Airport,48.6666,-69.5333,16,Tadoussac,,US/Eastern,QC,Quebec,CA,Canada,
589,CWAG,La Scie Airport - NE of Pacquet,50,-56,636,La Scie,,Canada/Newfoundland,NF,Newfoundland,CA,Canada,
590,CWAH,Amherst Airport - NW of Amherst,45.85,-64.267,75,Amherst,,Canada/Atlantic,NS,Nova Scotia,CA,Canada,
591,CWAJ,Eriea Airport - SE of Erieau,42.25,-81.9,584,Erieau,,US/Eastern,ON,Ontario,CA,Canada,
592,CWAN,Amphitrite Point Airport -SW of Port Albion ,48.917,-125.55,89,Port Albion,,US/Pacific,BC,British Columbia,CA,Canada,
593,CWAQ,Alert Bay Airport - SE of Coronach,49.05,-105.48,194,Coronach,,US/Pacific,BC,British Columbia,CA,Canada,
594,CWAR,Argentia Airport - NW of Argentia,47.2939,-53.9933,62,Argentia,,Canada/Newfoundland,NF,Newfoundland,CA,Canada,
595,CWAS,Pam Rocks - NW of West Vancouver,49.49,-123.3,0,West Vancouver,,US/Pacific,BC,British Columbia,CA,Canada,
596,CWAU,Bella Bella Airport - NE of Cambbell Island,52.183,-128.117,13,Campbell Island,,US/Pacific,BC,British Columbia,CA,Canada,
597,CWAV,Sundre Airport - SE of Sundre,51.7738,-114.6783,3655,Sundre,,US/Mountain,AB,Alberta,CA,Canada,
598,CWAW,Shearwater Jetty - SE of Halifax,44.64,-63.52,19,Halifax,,Canada/Atlantic,NS,Nova Scotia,CA,Canada,
599,CWAX,Saint Anthony Airport - SE of Big Brook,51.3919,-56.083,108,Big Brook,,Canada/Newfoundland,NF,Newfoundland,CA,Canada,
600,CWBA,Banff Airport - NE of Banff,51.2083,-115.5402,4583,Banff,,US/Mountain,AB,Alberta,CA,Canada,
601,CWBD,Burgeo Airport - NW of Burgeo,47.6166,57.6166,39,Burgeo,,Canada/Newfoundland,NF,Newfoundland,CA,Canada,
602,CWBE,Killarney Airport - SE of Birch Island,45.97,-81.48,643,Birch Island,,US/Eastern,ON,Ontario,CA,Canada,
603,CWBF,NE of Grand Bruit,48,-58,39,Grand Bruit,,Canada/Newfoundland,NF,Newfoundland,CA,Canada,
604,CWBG,SW of Big Creek,-51.26,-123.09,5551,Big Creek,,US/Pacific,BC,British Columbia,CA,Canada,
605,CWBI,NE of Britt,45.8,-80.533,623,Britt,,US/Eastern,ON,Ontario,CA,Canada,
606,CWBJ,Inner Whalebacks - NW of Yellowknife,62.9217,-114.7306,541,Yellowknife,,US/Mountain,NT,Northwest Territories,CA,Canada,
607,CWBK, Caribou Point - NE of Caribou Island,45.767,-62.683,7,Caribou Island,4619,Canada/Atlantic,NS,Nova Scotia,CA,Canada,
608,CWBL,Bachelors Island -NE of Winnipegosis,51.75,-99.9,256,Winnipegosis,,US/Central,MB,Manitoba,CA,Canada,
609,CWBM, SW of Beaverlodge,55,-119,2444,Beaverlodge,,US/Mountain,AB,Alberta,CA,Canada,
610,CWBO,Brook Airport - NW of Brooks,50.5502,-111.8925,2490,Brooks,,US/Mountain,AB,Alberta,CA,Canada,
611,CWBR,NW of Wager Bay,66,-92,102,Brown Lake,,US/Central,NT,Northwest Territories,CA,Canada,
612,CWBT,NW of Longue Pointe De Mingan,50.2714,-64.2264,36,Longue Pointe De Mingan,,US/Eastern,ON,Ontario,CA,Canada,
613,CWBU,Nipawin Airport,53.3327,-104.0088,1220,Nipawin,,Canada/Central,SK,Saskatchewan,CA,Canada,
614,CWBV,Beaver Island Airport -SE of Beaver Harbour,45.6922,-85.5663,669,Beaver Harbour,,Canada/Atlantic,NS,Nova Scotia,CA,Canada,
615,CWBY,Port Menier Airport- NE of Port Menier -  Anticosti Island,49.8363,64.2886,167,Port Menier,,Canada/Newfoundland,NF,Newfoundland,CA,Canada,
616,CWBZ,St Anicet Airport - SE of St Anicet,45.1208,-74.2894,161,St Anicet,,US/Eastern,QC,Quebec,CA,Canada,
617,CWCA,Cartwright Airport - SW of Cartwright,53.6827,-57.0419,40,Cartwright,,Canada/Newfoundland,NF,Newfoundland,CA,Canada,
618,CWCB,Nanakwa Shoals - SW of Kitimat,54,-129,0,Kitimat,,US/Pacific,BC,British Columbia,CA,Canada,
619,CWCD,Saskatoon Kernen - SW of Saskattoon,52.15,106.55,1673,Saskatoon,,Canada/Central,SK,Saskatchewan,CA,Canada,
620,CWCF,Barens River Airport - NW of Barens River,52.5255,97.0219,728,Berens River,,US/Eastern,MB,Manitoba,CA,Canada,
621,CWCH,Atikokan Municipal Airport - SW of Atikokan,48.4405,-91.6386,1408,Atikokan,,US/Eastern,ON,Ontario,CA,Canada,
622,CWCI,Weather Station - Caribou Island - NW of Frater,47.333,-85.8333,614,Frater,,US/Eastern,ON,Ontario,CA,Canada,
623,CWCJ,Pukaskwa Park - SW of Heron Bay,48.6,-86.3,676,Heron Bay,,US/Eastern,ON,Ontario,CA,Canada,
624,CWCL,NW of Clinton,51.2663,-121.5,3468,Clinton,,US/Pacific,BC,British Columbia,CA,Canada,
625,CWCM,Carberry,49.8688,-99.3594,1260,Carberry,,America/Belize,MB,Manitoba,CA,Canada,
626,CWCN,Malloch Dome Airport,78.6166,-106.9333,39,Isachsen,,US/Eastern,NT,Northwest Territories,CA,Canada,
627,CWCO,Cillingwood Airport - SE of Collingwood,44.4491,-80.1583,591,Collingwood,,US/Eastern,ON,Ontario,CA,Canada,
628,CWCP,Baccaro Point - SE of Barrington,43.4791,-65.4738,43,Barrington,,Canada/Atlantic,NS,Nova Scotia,CA,Canada,
629,CWCQ,Miramichi Airport - SE of Newcastle,47.0077,-65.4491,108,Newcastle,,Canada/Atlantic,,,CA,Canada,
630,CWCS,Cote-Ste-Cath Mot - SE of Huntingdon,45.4167,-73.5667,56,Cote-Ste-Cath Mot,,US/Eastern,QC,Quebec,CA,Canada,
631,CWCT,Coronation Airport - SE of Coronation,52.075,-111.4452,2595,Coronation,,US/Mountain,AB,Alberta,CA,Canada,
632,CWCU,Barrie Weather Station,44.383,-79.783,968,Barrie,,US/Eastern,ON,Ontario,CA,Canada,
633,CWCV,Nootka/Lightstation - NW of Zeballos,49.6,-126.6166,52,Nootka Lightstation,,US/Pacific,BC,British Columbia,CA,Canada,
634,CWCX,Clut Lake Automated Reporting Station,66,-117.7666,607,Clut Lake,,US/Mountain,NT,Northwest Territories,CA,Canada,
635,CWCZ,Addenbroke Island Lighthouse - NW of Wadhams,51.6036,-127.8639,69,Wadhams,,US/Pacific,BC,British Columbia,CA,Canada,
636,CWDA,Englee Airport,50.7166,-56.1166,95,Englee,,Canada/Newfoundland,NF,Newfoundland,CA,Canada,
637,CWDB,Burwash Landing,61.353,-138.9866,2644,Burwash Landing,,US/Pacific,YT,Yukon,CA,Canada,
638,CWDC,Weather Station - SE of Uranium City,59.567,-108.483,1043,Uranium City,,Canada/Central,SK,Saskatchewan,CA,Canada,
639,CWDD,Belle River - NW of Sudbury,47.0077,-82.7,604,Sudbury,,US/Eastern,ON,Ontario,CA,Canada,
640,CWDF,Oliphant  Airport - SW of Oliphanr,44.7167,-81.275,597,Oliphant,,US/Eastern,ON,Ontario,CA,Canada,
641,CWDH,Daniel's Harbour Airport - NE of Daniel's Harbour,50.2364,-57.5811,62,Daniel's Harbour,,Canada/Newfoundland,NF,Newfoundland,CA,Canada,
642,CWDI,NE of Badger,49.9667,-56.0667,344,Badger,,Canada/Newfoundland,NF,Newfoundland,CA,Canada,
643,CWDK,Claresholm Industrial Airport - SW of Claresholm ,50.0047,-113.7966,3316,Claresholm,,US/Mountain,AB,Alberta,CA,Canada,
644,CWDL,Dease Lake Airport - SW of Dease Lake,58.4222,-130.0322,2677,Dease Lake,,US/Pacific,,,CA,Canada,
645,CWDM,Chevery Airport ,50.4688,-59.6366,39,Chevery,,US/Eastern,QC,Quebec,CA,Canada,
646,CWDN,Collingwood Regional Airport - SW of Wasaga Beach,44.5205,-80.0166,597,Wasaga Beach,,US/Eastern,ON,Ontario,CA,Canada,
647,CWDO,Weather Station - NW of Twillingate,49.69,-54.8,92,Twillingate,,Canada/Newfoundland,NF,Newfoundland,CA,Canada,
648,CWDP,Manouane-Est Weather Station - SW of Gagnon,51,-71,1627,Gagnon,,US/Eastern,QC,Quebec,CA,Canada,
649,CWDQ,La Tuque Airport - SW of La Tuque,47.42,-72.8,554,La Tuque,,US/Eastern,QC,Quebec,CA,Canada,
650,CWDS,SE of Saint Lawrence,46.93,-55.38,160,Saint Lawrence,,Canada/Newfoundland,NF,Newfoundland,CA,Canada,
651,CWDT,Chute-Des-Passes Airport,49.9,-71.25,1309,Chute-Des-Passes,,US/Eastern,QC,Quebec,CA,Canada,
652,CWDU,NW of Cop Upper,51.09,-114.22,4051,Cop Upper,,US/Mountain,AB,Alberta,CA,Canada,
653,CWDV,Weather Station - SE of Upsala,49.4,-90.47,1604,Upsala,,US/Eastern,ON,Ontario,CA,Canada,
654,CWDW,NW of St. Anthony ,51.38,-56.1,95,St. Anthony,,Canada/Newfoundland,MB,Manitoba,CA,Canada,
655,CWDX,Daniels Harbour Airport - NW of Daniels Harbour,50.24,-57.61,62,Daniels Harbour,,Canada/Newfoundland,NF,Newfoundland,CA,Canada,
656,CWDZ,Drumheller East - SE of Drumheller East,51.44,-112.67,2221,Drumheller,,US/Mountain,AB,Alberta,CA,Canada,
657,CWEA,Pinawa Weather Station - NW of Pinawa,50.1779,-96.0651,879,Pinawa,,US/Central,MB,Manitoba,CA,Canada,
658,CWEB,Estevan Point - SW of Hesquiat,49.3833,-126.5431,23,Hesquiat,,US/Pacific,BC,British Columbia,CA,Canada,
659,CWEB,Estevan Point Weather Station - SW of Hesquiat,49.3833,-126.5431,23,Hesquiat,,US/Pacific,BC,British Columbia,CA,Canada,
660,CWEE,Chamouchouane - NW of Melancon,49.2833,-73.35,1001,Melancon,,US/Eastern,QC,Quebec,CA,Canada,
661,CWEF,St Paul Island - NE of Ingonish,47.2328,-60.1444,85,Ingonish,,Canada/Atlantic,NS,Nova Scotia,CA,Canada,
662,CWEF,St Paul Island - NE of Ingonish,47.24,-60.14,85,Ingonish,,Canada/Atlantic,NS,Nova Scotia,CA,Canada,
663,CWEH,Eastend Cypress Airport - SW of Eastend Cypress,49.4378,-108.98,3543,Eastend Cypress,,Canada/Central,SK,Saskatchewan,CA,Canada,
664,CWEI,Melita Airport - NE of Melita,49.2814,-100.9864,1463,Melita,,US/Central,MB,Manitoba,CA,Canada,
665,CWEJ,Bow Drill III -  NW of Rock Harbour,47.2,-55.1,0,Rock Harbour,,Canada/Newfoundland,NF,Newfoundland,CA,Canada,
666,CWEK,Grey Islet Airport - NW of Metlakatla,54.583,-130.7,26,Grey Islet,,US/Pacific,BC,British Columbia,CA,Canada,
667,CWEL,NE of Nanaimo - Entrance Island Airport,49.22,-123.8,16,Nanaimo,,US/Pacific,BC,British Columbia,CA,Canada,
668,CWEM,Egg Island - SW of Margaret Bay - Smith Sound,51.2472,-127.8354,46,Margaret Bay,,US/Pacific,BC,British Columbia,CA,Canada,
669,CWEO,Weather Station - SE of Labrador City,51.2472,-63.2836,1945,Lac Eon,,US/Eastern,QC,Quebec,CA,Canada,
670,CWEP,East Point Weather Station - NE of ElMira,46.45,-61.9767,42,ElMira,,Canada/Atlantic,PE,Prince Edward Island,CA,Canada,
671,CWEQ,Swan River Airport - NE of Swan River,52.115,-101.2331,1099,Swan River,,US/Central,MB,Manitoba,CA,Canada,
672,CWER,Ile D'Orleans Airport - SE of Saint-Fransois,46.9967,-70.8083,16,Saint-Francois,,US/Eastern,QC,Quebec,CA,Canada,
673,CWES,Cape Scott/Lighthouse Weather Station - NW of Cape Scott,50.783,-128.433,229,Cape Scott,,US/Pacific,BC,British Columbia,CA,Canada,
674,CWET,Egbert -Weather Station - SW of Barrie,44.233,-79.783,823,Barry,,US/Eastern,ON,Ontario,CA,Canada,
675,CWEU,SW of Eureka,79.9833,-85.9333,33,Eureka,,US/Central,NT,Northwest Territories,CA,Canada,
676,CWEV,Ellice River - SE of Cambridge Bay,68,-104,138,Cambridge Bay,,US/Mountain,NT,Northwest Territories,CA,Canada,
677,CWEW,L'Assomption - NE of Repentigny,45.8095,-73.433,69,Repentigny,,US/Eastern,QC,Quebec,CA,Canada,
678,CWEZ,SW of Saturna,48.783,-123.0458,22,Saturna,,US/Pacific,BC,British Columbia,CA,Canada,
679,CWFD,Cape Dyer Airport - SW of Cape Dyer,66.58,-61.62,1289,Cape Dyer,,Canada/Atlantic,NT,Northwest Territories,CA,Canada,
680,CWFE,Elk Island National Park - SW of Chipman,53.69,-112.87,2349,Chipman,,US/Mountain,AB,Alberta,CA,Canada,
681,CWFF,SE of Melfort,52.8167,-104.6,1604,Melfort,,Canada/Central,SK,Saskatchewan,CA,Canada,
682,CWFG,Sartine Island - NW of Port Hardy,50.83,-128.9,331,Port Hardy,,US/Pacific,BC,British Columbia,CA,Canada,
683,CWFH,NE of St. Shotts,46.72,-53.49,469,St. Shotts,,Canada/Newfoundland,NF,Newfoundland,CA,Canada,
684,CWFJ,NE of Cardston,49.2,-113.28,3727,Cardston,,US/Mountain,AB,Alberta,CA,Canada,
685,CWFL,Fort Reliance - SW of Reliance,62.72,-109.17,538,Reliance,,US/Central,NT,Northwest Territories,CA,Canada,
686,CWFM,Chatham Point Lighthouse - NE of Rock Bay,50.34,-125.44,75,Rock Bay,,US/Pacific,BC,British Columbia,CA,Canada,
687,CWFN,NW of Cree Lake,57.36,-107.13,1637,Cree Lake,,Canada/Central,SK,Saskatchewan,CA,Canada,
688,CWFO,SE of Flin Flon,54.69,-101.7,997,Flin Flon,,US/Eastern,MB,Manitoba,CA,Canada,
690,CWFP,Nain - SE of Nain,56.55,-61.71,22,Nain,,Canada/Newfoundland,NF,Newfoundland,CA,Canada,
691,CWFQ,Frelighsburg Village - Sw of Sutton,45.05,-72.73,498,Sutton,,US/Eastern,QC,Quebec,CA,Canada,
692,CWFR,Horsefly River - NE of Black Creek,52.29,-121.05,2775,Black Creek,,US/Pacific,BC,British Columbia,CA,Canada,
693,CWFU,Little Macatina - SE of Churchhill Falls,52.24,-61.32,1053,Churchhill Falls,,Canada/Newfoundland,NF,Newfoundland,CA,Canada,
694,CWFW,NE of Baie Comeau,49.2592,-68.1458,423,Baie Comeau,,US/Eastern,QC,Quebec,CA,Canada,
695,CWFX,Colville Lake Airport - NE of Colville Lake,67.04,-126.0908,849,Colville Lake,,US/Mountain,NT,Northwest Territories,CA,Canada,
696,CWFY,Conne River Aerodrome - NE of St. Alban's,48.17,-55.49,600,St. Albans,,Canada/Newfoundland,NF,Newfoundland,CA,Canada,
697,CWFZ,Fort Reliance Airport- SE of Reliance,62.72,-109.19,551,Reliance,,America/Belize,NT,Northwest Territories,CA,Canada,
698,CWGB,Ballenas Island - NE of Parksville,49.35,-124.17,16,Parksville,,US/Pacific,BC,British Columbia,CA,Canada,
699,CWGD,Goderich Airport - NW of Goderich,43.78,-81.72,698,Goderich,,US/Eastern,ON,Ontario,CA,Canada,
700,CWGF,Garden River -Wood Buffalo National Park - NE of Fox Lake  ,58.7108,-113.8664,791,Fox Lake,,US/Mountain,AB,Alberta,CA,Canada,
701,CWGH,Grenadier Island - NE of Rockport,44.4167,-75.85,269,Rockport,,US/Eastern,ON,Ontario,CA,Canada,
702,CWGJ,Montreal River - SW of Frater,47.2472,-84.5958,1506,Frater,,US/Eastern,ON,Ontario,CA,Canada,
703,CWGL,Lagoon City  - SW of Brichin,44.5333,-79.2167,725,Brichin,,US/Eastern,ON,Ontario,CA,Canada,
704,CWGM,Waterton Park Gate - NE of Waterton Park,49.13,-113.8,4251,Waterton Park,,US/Mountain,AB,Alberta,CA,Canada,
705,CWGN,NW of Gretna,49.04,-97.57,830,Gretna,,US/Central,MB,Manitoba,CA,Canada,
706,CWGO,Gimli Industrial Park Airport  - SW  of Gimli,50.628,-97.0433,753,Gimli,,US/Central,MB,Manitoba,CA,Canada,
707,CWGP,Pemberton Airport - SE of Pemberton,50.3,-122.7378,669,Pemberton,,US/Pacific,BC,British Columbia,CA,Canada,
708,CWGQ,Roquemaure - SW of Palmarolle,48.64,-79.4578,882,Palmarolle,,US/Eastern,QC,Quebec,CA,Canada,
709,CWGR, Grindstown Island- NW of Cap-aux-Meule,47.39,-61.87,196,Cap-au Meules,,US/Eastern,QC,Quebec,CA,Canada,
710,CWGT,Sisters Island - SE of Lasqueti,49.4864,-124.4349,9,Lasqueti,,US/Pacific,BC,British Columbia,CA,Canada,
711,CWGU,Cape George - NE of Ballantynes Cove,45.8742,-61.9014,394,Ballantynes Cove,,Canada/Atlantic,NS,Nova Scotia,CA,Canada,
712,CWGV,Carp Airport - SW of Ottawa,45.3167,-76,383,Ottawa,,US/Eastern,ON,Ontario,CA,Canada,
713,CWGW,NE of Sparwood,49.7453,-114.8861,3733,Sparwood,,US/Mountain,AB,Alberta,CA,Canada,
714,CWGX,Gillam Airport - Gillam Indian Settlement - NW of Gillam,56.3667,-94.7,476,Gillam,,US/Central,MB,Manitoba,CA,Canada,
715,CWGY,Esther 1 - SE of Esther,51.67,-110.2,2319,Esther,,US/Mountain,AB,Alberta,CA,Canada,
716,CWGZ,Grise Fiord Airport  -NW of Grise Fjord,76.42,-82.91,147,Grise Fjord,,US/Eastern,NT,Northwest Territories,CA,Canada,
717,CWHA,Highvale Airport - SW of Duffield,53.46,-114.47,2450,Dunffield,,US/Mountain,AB,Alberta,CA,Canada,
718,CWHC,Vancouver Harbour - SE of Stanley Park,49.3,-123.13,6,Vancouver,,US/Pacific,BC,British Columbia,CA,Canada,
719,CWHE,Ellerslie - SE of Edmonton,53.42,-113.2,2276,Edmonton,,US/Mountain,AB,Alberta,CA,Canada,
720,CWHH,Hunters Point  - NE of Barrows,53.029,-100.95,839,Barrows,,US/Central,MB,Manitoba,CA,Canada,
721,CWHI,SE of Three Hills,51.71,-113.22,2972,Three Hills,,US/Mountain,AB,Alberta,CA,Canada,
722,CWHJ,NE of Holberg,50.66,-128,2024,Holberg,,US/Pacific,BC,British Columbia,CA,Canada,
723,CWHK,Carvel - NW of Stoney Plain,53.5606,-114.1449,0,Carvel,,US/Mountain,AB,Alberta,CA,Canada,
724,CWHL,Holland Rock - NW of Osland,54.17,-130.37,16,Osland,,US/Pacific,BC,British Columbia,CA,Canada,
725,CWHM,NE of Varennes,45.72,-73.3767,629,Varennes,,US/Eastern,QC,Quebec,CA,Canada,
726,CWHN,Jimmy Lake - SW of Cole Lake,54.93,-109.97,2086,Cole Lake,,Canada/Central,SK,Saskatchewan,CA,Canada,
727,CWHO,Hopeland - SW of Hopedale,55.46,-60.23,39,Hopedale,,Canada/Newfoundland,NF,Newfoundland,CA,Canada,
728,CWHS,SW of Bernard Harbour,68.79,-114.84,213,Bernard Harbour,,US/Central,NT,Northwest Territories,CA,Canada,
729,CWHQ,NW of Deschambaults,46.68,-71.95,180,Deschambaults,,US/Eastern,QC,Quebec,CA,Canada,
730,CWHS,SW of Bernard Harbour,68.79,-114.84,213,Bernard Harbour,,America/Belize,NT,Northwest Territories,CA,Canada,
731,CWHT,NW of Haines Junction,60.7726,-137.5813,1965,Haines Junction,,US/Pacific,YT,Yukon,CA,Canada,
732,CWHU,SE of Corner Brook,48.59,-57.24,951,Star Brook,,Canada/Newfoundland,NF,Newfoundland,CA,Canada,
733,CWHV,SW of Beauceville,46.2,-70.78,751,Beauceville,,US/Eastern,QC,Quebec,CA,Canada,
734,CWHW,Comfort Cove Weather,49.28,-54.88,324,Comfort Cove,,Canada/Newfoundland,NF,Newfoundland,CA,Canada,
735,CWHX,NE of Bedford,44.7314,-63.6588,475,Maritimes Weather Centre,,Canada/Atlantic,NS,Nova Scotia,CA,Canada,
736,CWHX,Maritimes Weather Centre - NE of Bedford,44.7314,-63.6588,475,Bedford,,Canada/Atlantic,NS,Nova Scotia,CA,Canada,
737,CWIA,Saint-Henri-de-Taillon Weather,48.65,-71.85,337,Saint-Henri-de-Taillon,,US/Eastern,QC,Quebec,CA,Canada,
738,CWIC,NW of Isachsen - Ellef Ringnes Island,78.79,-103.55,190,Isachsen,,US/Eastern,NT,Northwest Territories,CA,Canada,
739,CWID,NW of Fort Providence,61.32,-117.6,528,Fort Providence,,US/Mountain,NT,Northwest Territories,CA,Canada,
740,CWIE,SE of Rae Lakes,63.6188,-115.02,1568,Indian River,,US/Central,NT,Northwest Territories,CA,Canada,
741,CWIF,Quatsino Light Station - SE of Winter Harbour,50.43,-128.03,68,Winter Harbour,,US/Pacific,BC,British Columbia,CA,Canada,
742,CWII,NW of Victoria Beach,50.71,-96.57,721,Victoria Beach,,US/Central,MB,Manitoba,CA,Canada,
743,CWIJ,Lupin - SE of Coppermine,65.77,-111.23,1640,Coppermine,,US/Central,NT,Northwest Territories,CA,Canada,
744,CWIK,NW of Broadview,50.39,-102.68,1975,Broadview,,Canada/Central,SK,Saskatchewan,CA,Canada,
745,CWIL,Hat Island - NW of Baker Lake,68.3181,-100.0869,118,Hat Island,,US/Central,NT,Northwest Territories,CA,Canada,
746,CWIM,Upsala - NW of Raith,49,-90,1575,Raith,,US/Eastern,ON,Ontario,CA,Canada,
747,CWIO,Iskut River - NW of Jacksons Landing ,57.74,-131.67,49,Jacksons Landing,,US/Pacific,BC,British Columbia,CA,Canada,
748,CWIQ,Primrose Lake - NE of Cold Lake,54.76,-110.05,2303,Cold Lake,,US/Mountain,AB,Alberta,CA,Canada,
749,CWIR,Victoria Marine - NW of Metchosin,48.38,-123.75,1053,Metchosin,,US/Pacific,BC,British Columbia,CA,Canada,
750,CWIT,St Clothilde - NW of Hemmingford,45.17,-73.68,171,Hemmingford,,US/Eastern,QC,Quebec,CA,Canada,
751,CWIU,St Gedeon - NW of Saint-Gedeon,48.49,-71.79,338,Saint-Gedeon,,US/Eastern,QC,Quebec,CA,Canada,
752,CWIW,Watrous East - SE of Watrous,51.67,-105.41,1722,Watrous,,Canada/Central,SK,Saskatchewan,CA,Canada,
753,CWIX,Mistook - NW of L'Ascention,48.77,-71.72,370,L'Ascention,,US/Eastern,QC,Quebec,CA,Canada,
754,CWIX,Mistook - NW of L'Ascention,48.77,-71.72,370,L'Ascention,,US/Eastern,QC,Quebec,CA,Canada,
755,CWIZ,L'Acadie - SW of L'Arcadie,45.3,-73.35,370,L'Acadie,,US/Eastern,QC,Quebec,CA,Canada,
756,CWJA,NE of Jasper - Jasper National Park ,52.89,-118.07,3481,Jasper,,US/Mountain,AB,Alberta,CA,Canada,
757,CWJC,Ennadai Lake - NW of Ennadai,61.14,-100.91,1171,Ennadai,,US/Mountain,NT,Northwest Territories,CA,Canada,
758,CWJD,NE of Grand Rapids,53.19,-99.27,741,Grand Rapids,,US/Central,MB,Manitoba,CA,Canada,
759,CWJE,NW of Eureka,80,-86,121,Skull Point,,US/Central,NT,Northwest Territories,CA,Canada,
760,CWJG,NW of Campbell Island,52.27,-128.407,32,Ivory Island,,US/Pacific,BC,British Columbia,CA,Canada,
761,CWJH,NW of Southend,56.34,-103.29,1125,Southend,,Canada/Central,SK,Saskatchewan,CA,Canada,
762,CWJI,Assiniboia Airport - NE of Assiniboia,49.74,-105.94,2372,Assiniboia,,Canada/Central,SK,Saskatchewan,CA,Canada,
763,CWJL,Fort Liard Weather,60.24,-123.47,699,Fort Liard,,US/Mountain,NT,Northwest Territories,CA,Canada,
764,CWJM,Upper Rideau Lake - NE of Newboro,44.7,-76.3,410,Newboro,,US/Eastern,ON,Ontario,CA,Canada,
765,CWJN,Herschel Island - Ivvavik National Park - SW of Hershel,69.57,-138.92,3,Herschel,,US/Pacific,YT,Yukon,CA,Canada,
766,CWJO,NE of Jonquiere,48.42,-71.22,436,Jonquiere,,US/Eastern,QC,Quebec,CA,Canada,
767,CWJR,SE of Creston,49.09,-116.5,2119,Creston,,US/Pacific,BC,British Columbia,CA,Canada,
768,CWJT,SE of Saint-Jovite,46.07,-74.54,784,Saint-Jovite,,US/Eastern,QC,Quebec,CA,Canada,
769,CWJU,Langara - NW of Haida - Langara Island,54.25,-133.05,127,Haida,,US/Pacific,BC,British Columbia,CA,Canada,
770,CWJV,SW of Vernon,50.24,-119.3,1824,Vernon,,US/Pacific,BC,British Columbia,CA,Canada,
771,CWJW,Jasper Warden - NW of Jasper  -Jasper National Park,52.94,-118.32,3343,Jasper,,US/Mountain,AB,Alberta,CA,Canada,
772,CWJX,Leader Airport - NE of Leader,50.91,-109.5,2201,Leader,,Canada/Central,SK,Saskatchewan,CA,Canada,
773,CWJY,Yathkyed Lake - NW of Padlei,62.71,-98.3,486,Padlei,,US/Mountain,NT,Northwest Territories,CA,Canada,
774,CWJZ,Dubawnt Lake - Thelon Game Sanctuary -  SW of Baker Lake,63.24,-101.77,778,Baker Lake,,US/Central,NT,Northwest Territories,CA,Canada,
775,CWKD,Bonnard - NW of Port Cartier,50.7044,-71.1625,1585,Port Cartier,,US/Eastern,QC,Quebec,CA,Canada,
776,CWKE,SE of Pelly Bay,68.44,-89.72,1070,Pelly Bay,,US/Eastern,NT,Northwest Territories,CA,Canada,
777,CWKG,Kejimkujik Nationa Park - SE of Maitlan Bridge,44.43,-65.2,416,Maitland Bridge,,Canada/Atlantic,NS,Nova Scotia,CA,Canada,
778,CWKH,Malahat Auto B- NW of Malahat,48.59,-123.59,902,Malahat,,US/Pacific,BC,British Columbia,CA,Canada,
779,CWKI,SW of Kitimat,54.05,-128.68,43,Kitimat,,US/Pacific,BC,British Columbia,CA,Canada,
780,CWKK,Katatota Island - NW of Beardmore,49.72,-88.34,853,Katatota Island,,Canada/Atlantic,,,CA,Canada,
781,CWKM,Komakuk Beach -NW of Herschel,69.5947,-140.1737,43,Komakuk Beach,,US/Pacific,YT,Yukon,CA,Canada,
782,CWKO,NW of Rockglen,49.18,-105.98,3008,Rockglen,,Canada/Central,SK,Saskatchewan,CA,Canada,
783,CWKR,Radar Site .. NW of King City,43.9639,-79.5739,1280,King City,,US/Eastern,ON,Ontario,CA,Canada,
784,CWKS,Sikanni Chief - NW of Sikanni,57.25,-122.72,2417,Sikanni,,US/Pacific,BC,British Columbia,CA,Canada,
785,CWKU,NE of Eureka,81.0333,-76.95,2720,Eureka,,US/Central,NT,Northwest Territories,CA,Canada,
786,CWKV,Hope Slide - SE of Hope,49.29,-121.24,2211,Hope,,US/Pacific,BC,British Columbia,CA,Canada,
787,CWKW,SE of Port Burwell,59.985,-64.165,1808,Cape Kakkiviak,,Canada/Newfoundland,NF,Newfoundland,CA,Canada,
788,CWKX,SE of Dease Lake,58.4167,-130,2631,Dease Lake,,US/Pacific,BC,British Columbia,CA,Canada,
789,CWLA,NW of Masset - Langara island,54.2553,-133.0583,135,Langara,,US/Pacific,BC,British Columbia,CA,Canada,
790,CWLB,NW of Lac La Biche,54.78,-112.02,1856,Lac La Biche,,US/Mountain,AB,Alberta,CA,Canada,
791,CWLC,Lucy Island Lighthouse - SW of Metlakatla,54.3,-130.6,89,Matlekatla,,US/Pacific,BC,British Columbia,CA,Canada,
792,CWLE,SW of Lucky Lake,50.96,-107.16,2175,Lucky Lake,,Canada/Central,SK,Saskatchewan,CA,Canada,
793,CWLF,NE of Landsdown House,52.23,-87.88,839,Lansdowne House,,US/Eastern,ON,Ontario,CA,Canada,
794,CWLG,NE of St. Albans,47.88,-55.85,3,St. Albans,,Canada/Newfoundland,NT,Northwest Territories,CA,Canada,
795,CWLH,Saint Lambert Weather,45.5,-73.52,23,Saint Lambert,,US/Eastern,QC,Quebec,CA,Canada,
796,CWLI,Liverpool Bay - SW of Anderson River,69.6042,-130.9106,335,Anderson River,,Canada/Atlantic,NT,Northwest Territories,CA,Canada,
797,CWLJ,NW of Meadow Lake,54.14,-108.54,1575,Meadow Lake,,Canada/Central,SK,Saskatchewan,CA,Canada,
798,CWLM, Victoria (AUTO O8) - SE of Victoria -,48.42,-123.32,230,Victoria,,US/Pacific,BC,British Columbia,CA,Canada,
799,CWLO,Canadian Forces Base Shilo - SE of Chater  ,49.79,-99.65,1223,Shilo,,US/Eastern,,,CA,Canada,
800,CWLP,Herbert Island - SE of Allison Harbour,50.94,-127.63,183,Allison Harbour,,US/Pacific,BC,British Columbia,CA,Canada,
801,CWLQ,NW of North Bay,46.32,-79.47,656,North Bay,,US/Eastern,ON,Ontario,CA,Canada,
802,CWLS,Mount Forest - SW of Mount Forest,43.98,-80.75,1362,Mount Forest,,US/Eastern,ON,Ontario,CA,Canada,
803,CWLT,NW of Alert,82.5,-62.84,711,Alert,,US/Central,NT,Northwest Territories,CA,Canada,
804,CWLU,NW of Lauzon,46.83,-71.17,216,Lauzon,,US/Eastern,QC,Quebec,CA,Canada,
805,CWLV,Prince Albert National Park - SE of Waskesu Lake,53.92,-106.07,1867,Waskesiu Lake,,Canada/Central,SK,Saskatchewan,CA,Canada,
807,CWLX,Longstaff Bluff Airporrt - NE of Hall Beach,68.8986,-75.1408,528,Hall Beach,,US/Eastern,NT,Northwest Territories,CA,Canada,
808,CWLY,Lytton Airport - NE of Lytton ,50.2243,-121.5814,751,Lytton,,US/Pacific,BC,British Columbia,CA,Canada,
809,CWLZ,Candle Lake,53.7683,-105.2619,1650,Candle Lake,,Canada/Central,SK,Saskatchewan,CA,Canada,
810,CWMA,NE of Masset,54.02,-132.12,16,Masset,,US/Pacific,BC,British Columbia,CA,Canada,
811,CWMD,SE of Mould Bay Camp,76.23,-119.32,39,Mould Bay,,US/Central,NT,Northwest Territories,CA,Canada,
812,CWME,Cathedral Point - SE of Ocean Falls,52.1875,-127.4717,105,Ocean Falls,,US/Pacific,BC,British Columbia,CA,Canada,
813,CWMH,SE of Mary's Harbour,52.3036,-55.8336,39,Mary's Harbour,,Canada/Newfoundland,NF,Newfoundland,CA,Canada,
814,CWMI,Miscou Island - NE of Pointe-Canot,48.03,-64.5,16,Pointe-Canot,,US/Eastern,QC,Quebec,CA,Canada,
815,CWMJ,SE of Maniwaki,46.2747,-75.9919,656,Maniwaki,,US/Eastern,QC,Quebec,CA,Canada,
816,CWMM,SE of Pine Meadows,49.2083,-122.6303,16,Pine Meadows,,US/Pacific,BC,British Columbia,CA,Canada,
817,CWMN,McGill - NW of Baie-d'Urfe,45.4242,-73.9373,207,Baie-d'Urfe,,US/Eastern,QC,Quebec,CA,Canada,
818,CWMP,Powder Lake - NE of Salt River,61.05,-109.3333,1299,Salt River,,US/Mountain,NT,Northwest Territories,CA,Canada,
819,CWMQ,NE of Maple Creek,49.9025,-109.4661,2516,Maple Creek,,Canada/Central,SK,Saskatchewan,CA,Canada,
820,CWMR,Merry Island - NW of Sechelt,49.48,-123.9,26,Sechelt,,US/Pacific,BC,British Columbia,CA,Canada,
821,CWMS,McInnes Island - SW of Klemtu,52.28,-129.72,82,Klemtu,,US/Pacific,BC,British Columbia,CA,Canada,
822,CWMT,SE of Lac La Martre,63.1336,-117.2447,889,Lac La Martre,,US/Central,NT,Northwest Territories,CA,Canada,
823,CWMU,Rampart River - SW of Fort Good Hope,65.95,-130.4667,509,Fort Good Hope,,US/Central,NT,Northwest Territories,CA,Canada,
824,CWMV,St Charles Creek -NW of Deline,65.75,-124.2167,1119,Deline,,US/Mountain,NT,Northwest Territories,CA,Canada,
825,CWMW,NW of Maniwaki,46.39,-76.96,557,Maniwaki,,US/Eastern,QC,Quebec,CA,Canada,
826,CWMX,Mildred Lake SW of Embarras Portage,58.0411,-111.5589,1017,Embarras Portage,,US/Mountain,AB,Alberta,CA,Canada,
827,CWMZ,Western Island - NW of Barrie,45.0333,-80.3667,627,Barrie,,US/Eastern,ON,Ontario,CA,Canada,
828,CWNB,Southeast Shoal - SE of Leamington,41.8333,-82.4667,640,Leamington,,US/Eastern,ON,Ontario,CA,Canada,
829,CWNC,Cobourg Weather,43.96,-78.17,252,Cobourg,,US/Eastern,ON,Ontario,CA,Canada,
830,CWND,Pelly Island - NW of Kittigazuit,69.6325,-135.4439,39,,,US/Mountain,NT,Northwest Territories,CA,Canada,
831,CWNE,North Point - NW of Seacow Pond,47.0581,-63.9986,26,Seacow Pond,,Canada/Atlantic,PE,Prince Edward Island,CA,Canada,
832,CWNG,Mount Arthur - SW of Alert ,81.3333,-74.7667,4383,Alert,,US/Central,NT,Northwest Territories,CA,Canada,
833,CWNH,SW of Riviere Du Loup,47.8,-69.55,486,Riviere Du Loup,,US/Eastern,QC,Quebec,CA,Canada,
834,CWNI,Nipterk Base - NW of Kittigazuit,69.6167,-135.3333,35,Kittigazuit,,US/Mountain,NT,Northwest Territories,CA,Canada,
835,CWNJ,Green Island - NW of Prince Rupert,54.5685,-130.7063,39, Prince Rupert,,US/Pacific,BC,British Columbia,CA,Canada,
836,CWNK,SW of Carman - U of M,49.81,-98.0297,879,Carman,,US/Central,MB,Manitoba,CA,Canada,
837,CWNL,Great Duck Island - SW of Evansville,45.6333,-82.95,600,Evansville,,US/Eastern,ON,Ontario,CA,Canada,
838,CWNM,SW of Nelson,49.4914,-117.3053,1755,Nelson,,US/Pacific,BC,British Columbia,CA,Canada,
839,CWNO,Satah River - NW of Marten House,66.8667,-134.2,282,Marten House,,US/Pacific,NT,Northwest Territories,CA,Canada,
840,CWNP,NW of Nakusp,50.2664,-117.8128,1680,Nakusp,,US/Pacific,BC,British Columbia,CA,Canada,
841,CWNQ,SW of Nicolet,46.2258,-72.6572,33,Nicolet,,US/Eastern,QC,Quebec,CA,Canada,
842,CWNR,Nakiska Ridgetop - NE of Canmore,50.9425,-115.1903,6279,Nakiska Ridgetop,,US/Central,BC,British Columbia,CA,Canada,
843,CWNT,Turtle Mountain - SE of Blairmore,49.59,-114.42,7099,Blairmore,,US/Central,BC,British Columbia,CA,Canada,
844,CWNW,Haldane River - NW of Port Radium,67.0667,-121.1,797,Port Radium,,US/Mountain,NT,Northwest Territories,CA,Canada,
845,CWNX,Nechako River - SE of Nancut,54.5633,-124.8333,2346,Nancut,,US/Pacific,BC,British Columbia,CA,Canada,
846,CWNZ,Nagagami - NW of Hearst,49.7469,-84.1636,866,Hearst,,US/Eastern,ON,Ontario,CA,Canada,
847,CWOA,Camsell River - NW of Lac La Martre,63.6167,-118.1167,755,Lac La Martre,,US/Mountain,NT,Northwest Territories,CA,Canada,
848,CWOB,Brevoort Island - SE of Iqaluit,63.3397,-64.1458,1234,Iqaluit,,Canada/Atlantic,NT,Northwest Territories,CA,Canada,
849,CWOC,NE of New Carlisle,48.02,-65.33,154,New Carlisle,,US/Eastern,QC,Quebec,CA,Canada,
850,CWOD,NW of Normandin,48.8419,-72.5465,449,Normandin,,US/Eastern,QC,Quebec,CA,Canada,
851,CWOE,NW of Onefour,49.1231,-110.4688,3068,Onefour,,US/Mountain,AB,Alberta,CA,Canada,
852,CWOF,Port Basques - SE of Channel-Port-aux-Basques,47.57,-59.18,131,Channel-Port-aux-Basques,,Canada/Newfoundland,NF,Newfoundland,CA,Canada,
853,CWOH,NW of Saint-Agathe-Des-Mont ,46.05,-74.2833,1296,Sainte-Agathe-Des-Mont,,US/Eastern,QC,Quebec,CA,Canada,
854,CWOI,Ivvavik National Park - SW of Herschel,69.1644,-140.15,801,Herschel,,US/Pacific,,,CA,Canada,
855,CWOK,Elbow - Switf Current Airport - SW of Swift Current,50.2919,-107.6906,2690,Swift Current,,Canada/Central,SK,Saskatchewan,CA,Canada,
856,CWOL,Sable Island - SE of Halifax,43.9167,-59.9167,13,Halifax,,Canada/Atlantic,NS,Nova Scotia,CA,Canada,
857,CWON,SE of Dawson,64.05,-139.16,1214,Dawson,,US/Pacific,YT,Yukon,CA,Canada,
858,CWOU,Primrose Lake 2 - NE of Cold Lake,54.7889,-110.0597,1988,Cold Lake,,US/Mountain,AB,Alberta,CA,Canada,
859,CWOY,NW of Wynyard,51.7667,-104.22,1841,Wynyard,,Canada/Central,SK,Saskatchewan,CA,Canada,
860,CWPA,Hendrickson - SE of Grande Prairie,54.795,-118.4467,4751,Grande Prairie,,US/Mountain,AB,Alberta,CA,Canada,
861,CWPB,Georgian Bay Islands NP - Beausoliel Island - SW of Honey Harbour,44.85,-79.87,600, Honey Harbour,,US/Eastern,,,CA,Canada,
862,CWPC,SW of Port Colborne,42.8676,-79.2531,604,Port Colborne,,US/Eastern,,,CA,Canada,
863,CWPD,Parc Des Laurentid - SW of Saint-Irenee,47.5622,-70.2289,2595,Saint Irenee,,US/Eastern,QC,Quebec,CA,Canada,
864,CWPE,Point Lepreau - SW of Dipper Harbour,45.0667,-66.4667,3,Dipper Harbour,,Canada/Atlantic,,,CA,Canada,
865,CWPF,Canadian Forces Base - Vancouver Island - NW of Esquimalt,48.4319,-123.4395,10,Esquimalt,,US/Pacific,BC,British Columbia,CA,Canada,
866,CWPH,SE of Inukjuak,58.45,-78.1167,10,Inukjuak,,US/Eastern,QC,Quebec,CA,Canada,
867,CWPI,Pine Island - SW of Allison Harbour,50.9756,-127.728,30,Allison Harbour,,US/Pacific,BC,British Columbia,CA,Canada,
868,CWPJ,Pt Escuminac- NE of Hardwicke,47.0667,-64.8,16,Hardwicke,,Canada/Atlantic,XX,XXX,CA,Canada,
869,CWPK,SE of Parent,47.917,-74.617,1450,Parent,,US/Eastern,QC,Quebec,CA,Canada,
870,CWPL,Pickle Lake Airport - SW of Pickle Lake,51.4492,-90.2178,1283,Pickle Lake,,US/Eastern,ON,Ontario,CA,Canada,
871,CWPO,SW of Pilot Mound,49.1911,-98.905,1542,Pilot Mound,,US/Central,MB,Manitoba,CA,Canada,
872,CWPQ,Montreal-Est - NE of Montreal,45.63,-73.55,167,Montreal,,US/Eastern,QC,Quebec,CA,Canada,
873,CWPR,NW of Princeton,49.4684,-120.5143,2297,Princeton,,US/Pacific,BC,British Columbia,CA,Canada,
874,CWPS,Long Point - NE of Nantocoke,42.5667,-80.05,574,Nantocoke,,US/Eastern,ON,Ontario,CA,Canada,
875,CWPT,Yankee - NE of Eureka on Ellesmere Island,81.7,-81,3455,Eureka,,US/Eastern,NT,Northwest Territories,CA,Canada,
876,CWPU,Puntzi Mountain SW of Redstone,52.1144,-124.1356,2986,Redstone,,US/Pacific,BC,British Columbia,CA,Canada,
877,CWPX,Cape Peel West - SW of Cambridge River,69.0358,-107.8231,541,Cambridge River,,US/Eastern,NT,Northwest Territories,CA,Canada,
878,CWPY,NE of Fort Chipewyan,58.7667,-111.1333,761,Fort Chipewyan,,US/Mountain,AB,Alberta,CA,Canada,
879,CWPZ,Burns Lake - SE of Rose Lake,54.3831,-125.9586,2310,Rose Lake,,US/Pacific,BC,British Columbia,CA,Canada,
880,CWQC,NW of Port Alberni,49.3166,-124.9267,249,Port Alberni,,US/Pacific,BC,British Columbia,CA,Canada,
881,CWQE,Toronto Headlands - NE of Orillia,44.6167,-79.35,301,Orrllia,,US/Eastern,ON,Ontario,CA,Canada,
882,CWQF,Rabbit Kettle - SE of Tungston,61.9631,-127.2092,2080,Tungston,,US/Mountain,NT,Northwest Territories,CA,Canada,
883,CWQG, Valcartier  - BFC Valcartier - NE of Shannon,46.9,-71.5,551,Shannon,,US/Eastern,QC,Quebec,CA,Canada,
884,CWQH,NE of Lennoxville,45.3689,-71.8236,594,Lennoxville,5830,US/Eastern,QC,Quebec,CA,Canada,
885,CWQJ,Sedco 710 - SE of St John's,46.51,-48.51,0,St John's,,Canada/Newfoundland,NF,Newfoundland,CA,Canada,
886,CWQK,Race Rocks - SE of Rocky Point,48.2983,-123.5316,16,Rocky Point,,US/Pacific,BC,British Columbia,CA,Canada,
887,CWQL,NE of Lethbridge,49.6951,-112.7674,3022,Lethbridge,,US/Mountain,AB,Alberta,CA,Canada,
888,CWQM,Cap Rouge - SE of Hebertville,48.3742,-71.5353,23,Hebertville,,US/Eastern,QC,Quebec,CA,Canada,
889,CWQN,Black Top Ridge - NE of Eureka,80,-85.4167,2031,Eureka,,US/Central,NT,Northwest Territories,CA,Canada,
890,CWQO,Ile Bicquette - NW of Le Bic,48.4156,-68.8928,23,Le Bic,,US/Eastern,QC,Quebec,CA,Canada,
891,CWQP,Point Petre - SE of Belleville,43.8333,-77.15,259,Belleville,,US/Eastern,ON,Ontario,CA,Canada,
892,CWQQ,Lacombe - SW of Lacombe,52.4489,-113.7558,2822,Lacombe,,US/Mountain,AB,Alberta,CA,Canada,
893,CWQR,Ice Aux Perroquets - SE of Longue-Pointe-du-Mingan,50.2208,-64.2072,30,Longue-Pointe-du-Mingan,,US/Eastern,QC,Quebec,CA,Canada,
894,CWQS,Kindakun Rocks - NW of Queen Charlotte,53.3147,-132.7711,46,Queen Charlotte,,US/Pacific,BC,British Columbia,CA,Canada,
895,CWQV,Puinte Claveau - SE of L'Anse-Saint-Jean,48.2603,-70.1144,13,L'Anse-Saint-Jean,,US/Eastern,QC,Quebec,CA,Canada,
896,CWQW,Cape Whittle - SW of Pointe-a-Maurier,50.1631,-60.0617,23,Pointe-a-Maurier,,US/Eastern,QC,Quebec,CA,Canada,
897,CWQY,Hanbury River - NE of Reliance,63.6,-105.1333,1040,Reliance,,US/Central,NT,Northwest Territories,CA,Canada,
898,CWQZ,Quesnel - NE of Nazko,53.0333,-123.533,1788,Nazko,98281,US/Pacific,BC,British Columbia,CA,Canada,
899,CWRA,SE of Cape Race,46.66,-53.0764,92,Cape Race,,Canada/Newfoundland,NF,Newfoundland,CA,Canada,
900,CWRD,Red Earth - NE of Atikameg,56.54,-115.27,1791,Atikameg,,US/Mountain,AB,Alberta,CA,Canada,
901,CWRE,Arnes - SE of Arborg,50.8,-96.95,725,Arborg,,US/Central,MB,Manitoba,CA,Canada,
902,CWRF,NW of Pelly Bay,68.4369,-89.7258,1076,Pelly Bay,,US/Central,NT,Northwest Territories,CA,Canada,
903,CWRH,,61.58,-64.65,1211,Resolution Island,,Canada/Atlantic,NT,Northwest Territories,CA,Canada,
904,CWRH,Resolution Island - NE of Port Burwell,61.58,-64.65,1211,Port Burwell,,Canada/Atlantic,NT,Northwest Territories,CA,Canada,
905,CWRK,NW of Bancroft,45.07,-77.87,1085,Bancroft,,US/Eastern,ON,Ontario,CA,Canada,
906,CWRM,Rocky House - NW of Rocky Mountain House,52.44,-114.93,3238,Rocky Mountain House,,US/Mountain,AB,Alberta,CA,Canada,
907,CWRN,Hart Island - SE of Canso,45.33,-60.99,13,Canso,,Canada/Atlantic,NS,Nova Scotia,CA,Canada,
909,CWRO,Rose Spit - NE of Masset,54.17,-131.67,23,Masset,,US/Pacific,BC,British Columbia,CA,Canada,
910,CWRP,Nicholson Peninsula - NW of Anderson River,69.9333,-128.9667,292,Anderson River,,US/Mountain,NT,Northwest Territories,CA,Canada,
911,CWRQ,Trois Rivieres - NW of Trois-Rivieres-Ouest,46.3833,-73.6167,36,Trois-Rivieres-Ouest,,US/Eastern,QC,Quebec,CA,Canada,
912,CWRR,Rock River - NW of Aklavik,68.95,-136.27,1968,Aklavik,,US/Pacific,YT,Yukon,CA,Canada,
913,CWRT,NE of Crowsnest,49.6275,-114.4819,4275,Crowsnest,,US/Mountain,AB,Alberta,CA,Canada,
914,CWRU,Solander Island - SW of Port Alice,50.117,-127.93,325,Port Alice,,US/Pacific,BC,British Columbia,CA,Canada,
915,CWRV,NE of Camrose,53.0347,-112.8142,2425,Camrose,,US/Mountain,AB,Alberta,CA,Canada,
916,CWRW,Fourchu Head - NE of Fourchu,45.7167,-60.2333,33,Fourchu,,Canada/Atlantic,NS,Nova Scotia,CA,Canada,
917,CWRX,Rowley Island - NE of Hall Beach,69.0833,-79.0333,135,Hall Beach,,US/Eastern,NT,Northwest Territories,CA,Canada,
918,CWRY,SE of Milk River,49.1353,-112.05,3445,Milk River,,US/Mountain,AB,Alberta,CA,Canada,
920,CWSA,Sable Island - SE of Halifax,43.94,-60.02,13,Sable Island,,Canada/Atlantic,NS,Nova Scotia,CA,Canada,
921,CWSD,Summerside Airport - NE of Miscouche,46.4411,-63.8381,40,Miscouche,,Canada/Atlantic,PE,Prince Edward Island,CA,Canada,
922,CWSE,Edmonton/Stony Plain - NW of Stony Plain,53.5475,-114.1083,2513,Stony Plain,,US/Mountain,AB,Alberta,CA,Canada,
923,CWSF,Cap Madeleine - NW of Riviere-La-Madeleine,49.2508,-65.3347,95,Rivirer-La-Madeleine,,US/Eastern,QC,Quebec,CA,Canada,
924,CWSG,NE of Cap-Chat,49.1092,-66.6544,16,Cap-Chat,,US/Eastern,QC,Quebec,CA,Canada,
925,CWSH,Sousa Creek - SE of Habay,58.5833,-118.5,1224,Habay,,US/Mountain,AB,Alberta,CA,Canada,
926,CWSI,NE of Simcoe,42.85,-80.2667,791,Simcoe,,US/Eastern,ON,Ontario,CA,Canada,
927,CWSK,Squamish Airport - NW of Brackendale,49.78,-123.17,170,Brackendale,,US/Pacific,BC,British Columbia,CA,Canada,
928,CWSL,NW of Salmon Arm,50.7031,-119.2906,1152,Salmon Arm,,US/Pacific,BC,British Columbia,CA,Canada,
929,CWSO,Exeter - NW of London,43.3666,-81.3834,892,London,,US/Eastern,ON,Ontario,CA,Canada,
930,CWSP,Sheringham Point - SW of Metchosin,48.3767,-123.921,69,Metchosin,,US/Pacific,BC,British Columbia,CA,Canada,
931,CWSR,NW of Spiritwood,53.3667,-107.55,1916,Spiritwood West,,Canada/Central,SK,Saskatchewan,CA,Canada,
932,CWSS,NE of St. Stephen,45.2106,-67.2528,85,St. Stephen,,Canada/Atlantic,,,CA,Canada,
933,CWSU,SE of Spraque,49.02,-95.6,1079,Sprague,,US/Central,MB,Manitoba,CA,Canada,
934,CWSV,NE of Blue River,52.1292,-119.2894,2241,Blue River,,US/Mountain,AB,Alberta,CA,Canada,
935,CWSW,NW of Sparwood,49.76,-114.89,3734,Sparwood,,US/Mountain,AB,Alberta,CA,Canada,
936,CWSY,NW of Sachs Harbour,72,-125.2667,289,Sachs Harbour,,US/Mountain,NT,Northwest Territories,CA,Canada,
937,CWSZ,Fisher Branch - SE of Hodgson,51.0833,-97.5544,830,Hodgson,,US/Central,MB,Manitoba,CA,Canada,
938,CWTA,McTavish - SW of Montreal,45.5049,-73.5793,207,Montreal,,US/Eastern,QC,Quebec,CA,Canada,
939,CWTB,Border - SW of Davis Inlet,55.3333,-63.2167,1572,Davis Inlet,,Canada/Newfoundland,NF,Newfoundland,CA,Canada,
940,CWTC,Ethelda Bay - SW of Butedale,53.0523,-129.6757,33,Butedale,,US/Pacific,BC,British Columbia,CA,Canada,
941,CWTD,Robertson Lake - Thelon Game Sanctuary - NW of Baker Lake,65.0997,-102.4294,801,Baker Lake,,US/Central,NT,Northwest Territories,CA,Canada,
942,CWTE,Trout Lake - NE of Fort Liard,60.4408,-121.2389,1634,Fort Liard,,US/Mountain,NT,Northwest Territories,CA,Canada,
943,CWTF,Beartooth Island - SW of Camsell Portage,59.2167,-109.7,781,Camsell Portage,,Canada/Central,SK,Saskatchewan,CA,Canada,
944,CWTG,Pointe Des Monts - SE of Godbout,49.3167,-67.3811,16,Godbout,,US/Eastern,QC,Quebec,CA,Canada,
945,CWTH,Tetsa River - SE of Summit Lake,58.65,-124.23,2637,Summit Lake,,US/Pacific,BC,British Columbia,CA,Canada,
946,CWTI,Triple Island Lighthouse - SW of Metlakatla,54.295,-130.8804,69,Metlakatla,,US/Pacific,BC,British Columbia,CA,Canada,
947,CWTL,NW of Big Trout Lake,53.8228,-89.8751,722,Big Trout,,US/Eastern,ON,Ontario,CA,Canada,
948,CWTN,Cap Tourmente NE of Saint-Joachim,47.0667,-70.8,20,Saint-Joachim,,US/Eastern,QC,Quebec,CA,Canada,
949,CWTO,Toronto/AES HQ - NW of Toronto,43.78,-79.47,614,Toronto,,US/Eastern,ON,Ontario,CA,Canada,
950,CWTP,SW of Holyrood,47.3278,-53.1786,951,Holyrood,,Canada/Newfoundland,NF,Newfoundland,CA,Canada,
951,CWTU,Tukialik Bay - NW of Holton Harbour,54.7158,-58.3578,2241,Holton Harbour,,Canada/Newfoundland,NF,Newfoundland,CA,Canada,
952,CWTW,NW of Tuktoyaktuk,69.45,-133,59,Tuktoyaktuk,,US/Mountain,NT,Northwest Territories,CA,Canada,
953,CWTX,Royal Island - SE of Waugh Manitoba,49.4686,-94.7631,1079,Waugh,,US/Eastern,ON,Ontario,CA,Canada,
954,CWTY,Trois-Rivieres - NE of Trois-Rivieres,46.3586,-72.5161,20,Trois-Rivieres,,US/Eastern,QC,Quebec,CA,Canada,
955,CWTZ,Toronto Island - NW of St. Catherines,43.333,-79.4167,253,St. Catherines,,US/Eastern,ON,Ontario,CA,Canada,
956,CWUD,Cape Hooper - NW of Kivitoo,68.9382,-64.8658,1316,Kivitoo,,Brazil/East,NT,Northwest Territories,CA,Canada,
957,CWUL,Quebec/Forecast Office - Trudeau Int'l Airport - SW of Montreal,45.4683,-73.7414,118,Montreal,,US/Eastern,QC,Quebec,CA,Canada,
958,CWUM,NW of Faro,62.2333,-133.35,2352,Faro,,US/Pacific,YT,Yukon,CA,Canada,
959,CWUN,NW of Vulcan,50.4,-113.3883,3478,Vulcan,,US/Mountain,AB,Alberta,CA,Canada,
960,CWUP,Cape Hooper - NW of - A Kivitoouyuittuq Ntl. Park,68.4725,-66.8153,1280,Kivitoo,,US/Eastern,NT,Northwest Territories,CA,Canada,
962,CWUS,SE of Summerland,49.5636,-119.6383,1489,Summerland,,US/Pacific,BC,British Columbia,CA,Canada,
963,CWUT,Shoal Lake Airport -  NW of Shoal Lake,50.455,-100.6036,1841,Shoal Lake,,US/Central,MB,Manitoba,CA,Canada,
964,CWUU,Mackar Inlet - SE of Taloyaok,68.3,-85.6667,1296,Taloyaok,,US/Eastern,NT,Northwest Territories,CA,Canada,
965,CWUW,Dewar Lakes - SW of Clyde River,68.65,-71.1667,1729,Clyde River,,US/Eastern,NT,Northwest Territories,CA,Canada,
967,CWVA,NW of Bonavista,48.6672,-53.1142,85,Bonavista,,Canada/Newfoundland,NF,Newfoundland,CA,Canada,
968,CWVB,Bonilla Island - SW of Oona River,53.4928,-130.6378,56,Oona River,,US/Pacific,BC,British Columbia,CA,Canada,
969,CWVC,SE of Swift Current,50.2592,-107.736,2707,Swift Current,,US/Eastern,,South Australia,CA,Canada,
970,CWVD,NW of Broughton Island,67.5356,-63.7889,1916,Broughton Island,,US/Eastern,NT,Northwest Territories,CA,Canada,
971,CWVE,SE of Valleyfield,45.2333,-74.1,151,Valleyfield,,Canada/Atlantic,NS,Nova Scotia,CA,Canada,
972,CWVF,Sands Head Light Station - SW of Richmond,49.1059,-123.3033,3,Richmond,,US/Pacific,BC,British Columbia,CA,Canada,
973,CWVH,Storm Hills - NE of Reindeer Depot,68.9108,-133.9417,856,Reindeer Depot,,US/Mountain,NT,Northwest Territories,CA,Canada,
974,CWVI,NE of Vegreville,53.62,-112.04,2096,Vegreville,,US/Mountain,AB,Alberta,CA,Canada,
975,CWVJ,Vivian SE of Anola,49.8833,-96.4667,951,Anola,,US/Central,MB,Manitoba,CA,Canada,
976,CWVK,SW of Vernon,50.2333,-119.2833,1824,Vernon,,US/Pacific,BC,British Columbia,CA,Canada,
977,CWVN,SE of Val Marie,49.0583,-107.58,2618,Val Marie,,Canada/Central,SK,Saskatchewan,CA,Canada,
978,CWVO,SE of Vauxhall,50.0529,-112.1258,2556,Vauxhall,,US/Mountain,AB,Alberta,CA,Canada,
979,CWVP,Cypress Hills Park - SE of Maple Creek ,49.6406,-109.5144,4170,Maple Creek,,Canada/Central,SK,Saskatchewan,CA,Canada,
980,CWVQ,Ste Anne De Bell NW of Baie-d'Urfe,45.4272,-73.9282,128,Baie-d'Urfe,,US/Eastern,QC,Quebec,CA,Canada,
981,CWVR,Pacific Weather Center - West End - Vancouver,49.2869,-123.1177,52,Vancouver,,US/Pacific,BC,British Columbia,CA,Canada,
982,CWVT,SE of Buffalo Narrows,55.8406,-108.4206,1424,Buffalo Narrows,,Canada/Central,SK,Saskatchewan,CA,Canada,
983,CWVU,Brier Island - NE of Westport,44.2858,-66.3467,52,Westport,,Canada/Atlantic,NS,Nova Scotia,CA,Canada,
984,CWVV,Victoria/Hartland - SW of Brentwood Bay,48.5338,-123.4591,505,Brentwood Bay,,US/Pacific,BC,British Columbia,CA,Canada,
985,CWVW,Grates Cove - SE of Shoal Harbour,48.1719,-53.9392,59,Shoal Harbour,,Canada/Newfoundland,NF,Newfoundland,CA,Canada,
986,CWVX,Brevoort Island - SE of Iqaluit,63.34,-64.16,1234,Iqaluit,,Canada/Atlantic,NT,Northwest Territories,CA,Canada,
987,CWVY,NW of Villeroy,46.43,-71.93,354,Villeroy,,US/Eastern,QC,Quebec,CA,Canada,
988,CWVZ,Ile Charron - NE of Montreal,45.5839,-73.4917,39,Montreal,,US/Eastern,QC,Quebec,CA,Canada,
989,CWWA,West End Cypress - NW of West Vancouver,49.3469,-123.1931,584,West Vancouver,,US/Pacific,BC,British Columbia,CA,Canada,
990,CWWB,Burlington Piers - SE of Burlington,43.3002,-79.7912,249,Burlington,,US/Eastern,ON,Ontario,CA,Canada,
991,CWWC,Collins Bay NW of Wollaston Lake Post,58.1833,-103.7,1614,Wollaston Lake Post,,Canada/Central,SK,Saskatchewan,CA,Canada,
992,CWWE,Western Head - NE of Liverpool,43.99,-64.6642,30,Liverpool,,Canada/Atlantic,NS,Nova Scotia,CA,Canada,
993,CWWF,NE of Weyburn,49.7,-103.8,1932,Weyburn,,Canada/Central,SK,Saskatchewan,CA,Canada,
994,CWWG,Prairie/Weather Center - Winnipeg Weather,49.8924,-97.1404,748,Winnepeg,,US/Central,MB,Manitoba,CA,Canada,
995,CWWK,SE of White Rock,49.0181,-122.784,49,White Rock,,US/Pacific,BC,British Columbia,CA,Canada,
996,CWWL,Bonilla Island NE of Lawnhill,53.4927,-130.6357,56,Lawnhill,,US/Pacific,BC,British Columbia,CA,Canada,
997,CWWM,Grant - NW of Alert,82.5,-65.0833,4075,Alert,,US/Eastern,NT,Northwest Territories,CA,Canada,
998,CWWN,Peawanuck - SW of Winisk,54.9833,-85.4333,171,Winisk,,US/Eastern,ON,Ontario,CA,Canada,
999,CWWO,Willow Creek - Jasper N.P. - NW of Brule,53.3856,-118.3475,4600,Brule,,US/Mountain,AB,Alberta,CA,Canada,
1000,CWWP,NE of Wasagaming,50.655,-99.9419,2057,Wasagaming,,US/Central,MB,Manitoba,CA,Canada,
1001,CWWQ,SE of Muncho Lake - Muncho Lake National Park,58.9167,-125.7667,2746,Muncho Lake,,US/Pacific,BC,British Columbia,CA,Canada,
1002,CWWS,George Island - NW of Barens River,52.8,-97.6167,732,Barens River,,US/Central,MB,Manitoba,CA,Canada,
1003,CWWU,Ingenika Point - NW of Conception Bay South ,47.5158,-52.9803,4,Conception Bay South,,Canada/Newfoundland,BC,British Columbia,CA,Canada,
1004,CWWV,Killinek - NW of Port Burwell,60.4167,-64.85,102,Port Burwell,,US/Eastern,NF,Newfoundland,CA,Canada,
1005,CWWX,Cove Island -NW of  Tobermory - Fathom Five National Marine Park,45.3271,-81.7364,594,Tobermory,,US/Eastern,ON,Ontario,CA,Canada,
1006,CWWY,SE of Barrington,43.4522,-65.4722,69,Barrington,,Canada/Atlantic,NS,Nova Scotia,CA,Canada,
1007,CWWZ,Port Weller - NE of St. Catherines,43.25,-79.2167,259,St. Catherines,,US/Eastern,ON,Ontario,CA,Canada,
1008,CWXA,Bow Valley - SW of Seebe,51.0833,-115.0667,4259,Seebe,,US/Mountain,AB,Alberta,CA,Canada,
1009,CWXC,Onatchiway - NE of Canton-Begin,48.8942,-71.0317,997,Canton-Begin,,US/Eastern,QC,Quebec,CA,Canada,
1010,CWXH,SW of Holberg,50.6399,-128.1291,1864,Holberg,,US/Pacific,BC,British Columbia,CA,Canada,
1011,CWXI,Ferolle Point - NW of New Ferolle,51.0167,-57.1,26,New Ferolle,,US/Eastern,QC,Quebec,CA,Canada,
1012,CWXJ,Bull Arm - NE of Come By Chance,47.8167,-53.9,390,Come By Chance,,Canada/Newfoundland,NF,Newfoundland,CA,Canada,
1013,CWXK,Clinton Point - NE of Paulatuk,69.58,-120.8,331,Paulatuk,,US/Mountain,NT,Northwest Territories,CA,Canada,
1014,CWXL,Bow Island - SE of Grassy Lake,49.7342,-111.4503,2680,Grassy Lake,,US/Mountain,AB,Alberta,CA,Canada,
1015,CWXM,Helmcken Island - NE of Kelsey Bay,50.4,-125.8667,62,Kelsey Bay,,US/Pacific,BC,British Columbia,CA,Canada,
1016,CWXO,Rowan Gorilla III - SE of Halifax,43.8833,-60.55,144,Halifax,,Canada/Atlantic,NS,Nova Scotia,CA,Canada,
1017,CWXP,NW of Pangnirtung,66.15,-65.7167,75,Pangnirtung,,Canada/Atlantic,NT,Northwest Territories,CA,Canada,
1018,CWXR,Croker River - NW of Bernard Harbour,69.2756,-119.2189,226,Bernard Harbour,,US/Central,NT,Northwest Territories,CA,Canada,
1019,CWXS,NW of Bas Caraquet,47.8022,-64.8333,16,Bas Caraquet,,Canada/Atlantic,,,CA,Canada,
1020,CWXV,Back River - NW of Wager Bay,66.0861,-96.5108,92,Wager Bay,,US/Eastern,NT,Northwest Territories,CA,Canada,
1021,CWXW,Alexis River - NW of Port Hope Simpson,52.65,-56.8667,141,Port Hope Simpson,,Canada/Newfoundland,NF,Newfoundland,CA,Canada,
1022,CWXZ,SW of Wawa,47.9667,-84.7833,942,Wawa,,US/Eastern,ON,Ontario,CA,Canada,
1023,CWYB,North Bay/Weather Office - NE of North Bay,46.3167,-79.45,653,North Bay,,US/Eastern,ON,Ontario,CA,Canada,
1024,CWYG,SE of Charlottetown,46.2333,-63.1333,164,Charlottetown,,Canada/Atlantic,PE,Prince Edward Island,CA,Canada,
1025,CWYH,NW of Rae Lakes,64.1117,-117.3278,732,Rae Lakes,,US/Central,NT,Northwest Territories,CA,Canada,
1026,CWYI,Pools Island - SE of Valleyfield,49.1122,-53.5811,62,Valleyfield,,Canada/Newfoundland,NF,Newfoundland,CA,Canada,
1027,CWYJ,Victoria University - NE of Victoria,48.4579,-123.3104,197,Victoria,,US/Pacific,BC,British Columbia,CA,Canada,
1028,CWYK,Cape Kiglapait - SE of Nutak,57.1358,-61.4756,2736,Nutak,,Canada/Newfoundland,NF,Newfoundland,CA,Canada,
1029,CWYL,Yoho Park - SW of Stephen - Yoho National Park,51.4428,-116.3444,5299,Stephen,,US/Mountain,AB,Alberta,CA,Canada,
1030,CWYM,Cape Mercy - SE of Clyde River,64.9578,-63.5778,1913,Clyde River,,US/Eastern,NT,Northwest Territories,CA,Canada,
1031,CWYO,NW of Wynard,51.7667,-104.2,1841,Wynyard,,Canada/Central,SK,Saskatchewan,CA,Canada,
1032,CWYW,Armstrong - SE of Armstrong Station,50.2963,-88.9053,1063,Armstrong Station,,US/Eastern,ON,Ontario,CA,Canada,
1033,CWYY,SE of Osoyoos,49.0016,-119.4624,961,Osoyoos,,US/Pacific,BC,British Columbia,CA,Canada,
1034,CWYZ,Ontario Weather Center - Lester Pearson Airport - NW of Toronto,43.6883,-79.6333,548,Toronto,,US/Eastern,ON,Ontario,CA,Canada,
1035,CWZA,Agassiz - NE of Chilliwack,49.243,-121.7601,49,Chilliwack,,US/Pacific,BC,British Columbia,CA,Canada,
1036,CWZB,Port-Aux-Basques - NW of Channel-Port aux Basques,47.5739,-59.1547,131, Channel-Port aux Basques,,Canada/Newfoundland,QC,Quebec,CA,Canada,
1037,CWZC,SW of Moosonee,51.2631,-80.6531,33,Moosonee,,US/Eastern,ON,Ontario,CA,Canada,
1038,CWZD,Scudder Point - SE of Skidgate ,52.4468,-131.2391,16,Skidegate,,US/Pacific,BC,British Columbia,CA,Canada,
1039,CWZG,NE of Banff - Banff National Park,51.1933,-115.5522,4583,Banff,,US/Mountain,AB,Alberta,CA,Canada,
1040,CWZK,Hoskins Inlet - SE of Sandspit,52.5406,-131.5498,26,Sandspit,,US/Pacific,BC,British Columbia,CA,Canada,
1041,CWZL,Cumshewa Island - SE of Alliford Bay,53.0301,-131.602,56,Alliford Bay,,US/Pacific,BC,British Columbia,CA,Canada,
1042,CWZM,Boat Bluff Lighthouse - NE of Klemtu,52.6435,-128.5225,36,Klemtu,,US/Pacific,BC,British Columbia,CA,Canada,
1043,CWZN,Sagona Island - SE of Harbour Breton,47.3678,-55.7947,196,Harbour Breton,,Canada/Newfoundland,NF,Newfoundland,CA,Canada,
1044,CWZO,Kelp Reefs - SE of Central Saanich,48.55,123.23,56,Central Saanich,,US/Pacific,BC,British Columbia,CA,Canada,
1045,CWZQ,NW of Grand Etang,46.55,-61.05,43,Grand Etang,,Canada/Atlantic,NS,Nova Scotia,CA,Canada,
1046,CWZS,NW of Amqui,48.4719,-67.4347,545,Amqui,,US/Eastern,QC,Quebec,CA,Canada,
1047,CWZW,SW of Teslin,60.1667,-132.7333,2313,Teslin,,US/Pacific,YT,Yukon,CA,Canada,
1048,CWZZ,Saglek Bay - NE of Hebron,58.3333,-62.5856,1644,Hebron,,Canada/Newfoundland,NF,Newfoundland,CA,Canada,
1049,CXBP,Confederation Bridge - SW of Borden-Carleton,46.2333,-63.7333,177,Borden-Carleton,,Canada/Atlantic,PE,Prince Edward Island,CA,Canada,
1050,CXCH,NE of Cheticamp,46.645,-60.9472,144,Cheticamp,,Canada/Atlantic,NS,Nova Scotia,CA,Canada,
1051,CXDE,NE of Deline,65.2286,-123.4333,699,Deline,,US/Mountain,NT,Northwest Territories,CA,Canada,
1052,CXDI,NW of Delhi,42.8636,-80.5453,761,Delhi,,Canada/Atlantic,NS,Nova Scotia,CA,Canada,
1053,CXDW,Deerwood RCS - NW of Miami,49.3997,-98.3192,1119,Miami,,US/Central,MB,Manitoba,CA,Canada,
1054,CXEC,Edmonton Municipal - NW of Edmonton,53.5731,-113.5167,2201,Edmonton,,US/Mountain,AB,Alberta,CA,Canada,
1055,CXEG,Edmonton Intl - SW of Edmonton,53.3097,-113.5797,2372,Edmonton,,US/Mountain,AB,Alberta,CA,Canada,
1056,CXFA,Fanny Island - SE of Port Neville,50.4535,-125.9929,26,Port Neville,,US/Pacific,BC,British Columbia,CA,Canada,
1057,CXFS,Fort Simpson Airport - Se of Fort Simpsom,61.7667,-121.2333,554,Fort Simpson,,US/Mountain,NT,Northwest Territories,CA,Canada,
1058,CXGH,Gimli Harbour - SE of Gimli,50.6311,-96.9822,712,Gimli,,US/Central,MB,Manitoba,CA,Canada,
1059,CXHF,High Falls - NW of Buckingham,45.8394,-75.6481,640,Buckingham,,US/Eastern,QC,Quebec,CA,Canada,
1060,CXHI,Holman Island - NE of Holman,70.7614,-117.8,98,Holman,,US/Mountain,NT,Northwest Territories,CA,Canada,
1061,CXJM,Jean Marie - SE of Fort Simpson,61.35,-120.78,745,Fort Simpson,,US/Mountain,NT,Northwest Territories,CA,Canada,
1062,CXKT,SE of Kentville,45.0667,-64.4833,161,Kentville,,Canada/Atlantic,NS,Nova Scotia,CA,Canada,
1063,CXLC,Lower Carp Lake - NW of Camlaren,63.6028,-113.8625,1224,Camlaren,,US/Mountain,NT,Northwest Territories,CA,Canada,
1064,CXLL,Lindberg Landing - NE of Nahanni Butte,61.125,-122.8511,600,Nahanni Butte,,US/Central,NT,Northwest Territories,CA,Canada,
1065,CXLU,NE of Lutsel,62.4156,-110.6903,0,Lutsel,,US/Central,NT,Northwest Territories,CA,Canada,
1066,CXMD,SE of Morden,49.1878,-98.0839,978,Morden,,US/Central,MB,Manitoba,CA,Canada,
1067,CXMI,McNabs Island - SE of Halifax,44.6023,-63.5335,49,Halifax,,Canada/Atlantic,NS,Nova Scotia,CA,Canada,
1068,CXMM,Fort McMurray Regional Airport,56.6511,-111.2233,1211,Fort McMurray,,US/Mountain,AB,Alberta,CA,Canada,
1069,CXMY,Malay Falls - NE of Sheet Harbour,44.9833,-62.4833,131,Sheet Harbour,,Canada/Atlantic,NS,Nova Scotia,CA,Canada,
1070,CXNM,North Mountain - NE of Pleasant Bay,46.8169,-60.6722,1440,Pleasant Bay,,Canada/Atlantic,NS,Nova Scotia,CA,Canada,
1071,CXOX,La Ronge Airport - NE of La Ronge,55.1464,-105.2703,1243,La Ronge,,Canada/Central,SK,Saskatchewan,CA,Canada,
1072,CXQA,Qavvik Lake - SE of Paulatuck - Tuktut Nogait Natl Pk ,68.2544,-122.1028,1798,Paulatuck,,US/Mountain,NT,Northwest Territories,CA,Canada,
1073,CXRH,SE of Rocky Harbour,49.57,-57.8778,223,Rocky Harbour,,Canada/Newfoundland,NF,Newfoundland,CA,Canada,
1074,CXSR,SW of Spirit River,55.6947,-119.2303,3330,Spirit River,,US/Mountain,AB,Alberta,CA,Canada,
1075,CXSW,Saint John's West - NE of Mount Pearl Park,47.5156,-52.7835,374,Mount Pearl Park,,Canada/Newfoundland,NF,Newfoundland,CA,Canada,
1076,CXTN,Tuktut Nogait National Park - SE of Paulatuk,69.1989,-122.3592,1811,Tuktut Nogait,,US/Central,NT,Northwest Territories,CA,Canada,
1077,CXTP,Terra Nova National Park - NE of Terra Nova,48.5569,-53.9744,351,Terra Nova,,Canada/Newfoundland,NF,Newfoundland,CA,Canada,
1078,CXTV,Trail Valley - NW of Raindeer Depot,68.7464,-133.5017,279,Raindeer Depot,,US/Mountain,NT,Northwest Territories,CA,Canada,
1079,CXWN,Winnipeg The Forks  -SE of Winnipeg,49.8885,-97.1296,755,Winnipeg,,US/Central,MB,Manitoba,CA,Canada,
1080,CXWR,Wreckhouse - NE of Red Rocks,47.7117,-59.3083,105,Red Rocks,,Canada/Newfoundland,NF,Newfoundland,CA,Canada,
1081,CXXX,SW of Cluff Lake,58.3913,-109.5164,1112,Cluff Lake,,Canada/Central,SK,Saskatchewan,CA,Canada,
1082,CXZU,Whitecourt Airport - NW of Whitecourt,54.1397,-115.7839,2575,Whitecourt,,US/Mountain,AB,Alberta,CA,Canada,
1083,CYAD,La Grande III - SE of Radisson,53.5718,-76.1963,764,Radisson,,US/Eastern,QC,Quebec,CA,Canada,
1084,CYAH,La Grande IV Airport - NW of Nitchequon,53.7547,-73.6753,1004,La Grande IV/Airport,,US/Eastern,QC,Quebec,CA,Canada,
1085,CYAJ,Komakuk Beach Airport - NW of Hershel,69.5833,-140.1833,23,Herschel,,US/Pacific,,,CA,Canada,
1086,CYAM,SW of Sault Ste Marie,46.4833,-84.5094,630,Sault Ste Marie,,US/Eastern,ON,Ontario,CA,Canada,
1087,CYAS,SE of Kangirsuk,60.0272,-69.9992,384,Kangirsuk,,US/Eastern,QC,Quebec,CA,Canada,
1088,CYAW,Shearwater Military - SE of Dartmouth,44.6397,-63.4994,167,Dartmouth,,Canada/Atlantic,NS,Nova Scotia,CA,Canada,
1089,CYAY,Saint Anthony Airport - SE of Eddies Cove,51.3919,-56.0831,108,Eddies Cove,,Canada/Newfoundland,NF,Newfoundland,CA,Canada,
1090,CYAZ,Tofino Airport - SE of Torofino - Pacific Rim National Park,49.0822,-125.7725,79,Tofino,,US/Pacific,BC,British Columbia,CA,Canada,
1091,CYBB,Pelly Bay Airport - NE of Pelly Bay,68.5344,-89.8081,56,Pellla Bay,,US/Central,NT,Northwest Territories,CA,Canada,
1092,CYBC,Baie Comeau Airport - SW of Pointe-Lebel,49.1325,-68.2044,72,Pointe-Lebel,,US/Eastern,QC,Quebec,CA,Canada,
1093,CYBD,Bella Coola Airport - NW of Hagensborg,52.3875,-126.5958,118,Hagensborg,,US/Pacific,BC,British Columbia,CA,Canada,
1094,CYBG,Bagotville Military - NW of Port -Alfred,48.3339,-70.9869,522,Port-Alfred,,US/Eastern,QC,Quebec,CA,Canada,
1095,CYBK,Baker Lake Airport - SW of Baker Lake,64.2989,-96.0778,59,Baker Lake,,US/Central,NT,Northwest Territories,CA,Canada,
1096,CYBL,Campbell River Airport - SW of Campbell River,49.9508,-125.2708,348,Campbell River,,US/Pacific,BC,British Columbia,CA,Canada,
1097,CYBN,Borden - Canadian Forces Base - SW of Angus,44.2704,-79.9219,732,Borden,,US/Eastern,ON,Ontario,CA,Canada,
1098,CYBR,Brandon Airport - NE of Brandon,49.91,-99.9519,1342,Brandon,58369,US/Central,MB,Manitoba,CA,Canada,
1099,CYBU,Nipawin Airport - SE of Nipawin,53.3325,-104.0083,1207,Nipawin,,Canada/Central,SK,Saskatchewan,CA,Canada,
1100,CYBV,Berens River - Airport - NE of Berens,52.3589,-97.0183,728,Berens River,,US/Central,MB,Manitoba,CA,Canada,
1101,CYBW,Springbank Airport - NW of Calgary,51.1031,-114.3744,3937,Calgary,,US/Mountain,AB,Alberta,CA,Canada,
1102,CYBX,Blanc Sablon Airport - NW of Blanc-Sablon,51.4436,-57.1853,121,BVlanc-Sablon,,Canada/Newfoundland,NF,Newfoundland,CA,Canada,
1103,CYCA,SW of Cartwright,53.6824,-57.0419,39,Cartwright,,Canada/Newfoundland,NF,Newfoundland,CA,Canada,
1104,CYCB,Cambridge Bay Airport - SW of Cambridge Bay ,69.1081,-105.1083,89,Cambridge Bay,,US/Central,NT,Northwest Territories,CA,Canada,
1105,CYCD,Nanaimo Airport SE of Nanaimo,49.0516,-123.8741,92,Nanaimo,,US/Pacific,BC,British Columbia,CA,Canada,
1106,CYCG,Castlegar Airport - NE ofCastlegar,49.2964,-117.6325,1624,Castlegar,,US/Pacific,BC,British Columbia,CA,Canada,
1107,CYCH,Miramichi Airport - SW of Chatham,47.0078,-65.4492,108,Chatham,,Canada/Atlantic,XX,XXX,CA,Canada,
1108,CYCL,Charlo Airport - NW of River Charlo,47.9908,-66.3303,125,River Charlo,,Canada/Atlantic,XX,XXX,CA,Canada,
1109,CYCO,Coppermine Airport - NW of Coppermine,67.8167,-115.1439,75,Coppermine,,US/Central,NT,Northwest Territories,CA,Canada,
1110,CYCP,NE of Blue River,52.129,-119.2898,2241,Blue River,,US/Mountain,AB,Alberta,CA,Canada,
1111,CYCQ,Chetwynd Airport - SE of Chetwynd,55.6872,-121.6267,1999,Chetwynd,,US/Pacific,BC,British Columbia,CA,Canada,
1112,CYCS,SW of Chesterfield Inlet,63.3333,-90.7167,36,Chesterfield Inlet,,US/Central,NT,Northwest Territories,CA,Canada,
1113,CYCT,SE of Coronation,52.075,-111.4453,2595,Coronation,,US/Mountain,AB,Alberta,CA,Canada,
1114,CYCX,Gagetown CFB - SE of Oromocto,45.8389,-66.4497,167,Oromocto,4619,Canada/Atlantic,XX,XXX,CA,Canada,
1115,CYCY,Clyde River Airport - NW of Clyde River,70.4861,-68.6167,89,Clyde River,,US/Central,NT,Northwest Territories,CA,Canada,
1116,CYDA,Dawson Airport - SE of Dawson,64.0431,-139.1278,1214,Dawson,,US/Pacific,YT,Yukon,CA,Canada,
1117,CYDB,Burwash Airport NW of Burwash Landing,61.3706,-139.04,2648,Burwash Landing,,US/Pacific,YT,Yukon,CA,Canada,
1118,CYDC,Princeton Airport - NW of Princeton,49.4683,-120.5143,2297,Princeton,,US/Pacific,BC,British Columbia,CA,Canada,
1119,CYDF,Deer Lake Regional Airport - NE of Deer Lake,49.2109,-57.3975,72,Deer Lake,,Canada/Newfoundland,NF,Newfoundland,CA,Canada,
1120,CYDL,Dease Lake FD Point - SW of Dease Lake,58.4222,-130.0314,2634,Dease Lake,,US/Pacific,BC,British Columbia,CA,Canada,
1121,CYDM,Ross River Airport - NE of Ross River,61.9666,-132.433,2313,Ross River,,US/Pacific,YT,Yukon,CA,Canada,
1122,CYDN,Dauphin Airport - Lieutenant Colonel Barker Airfield - SE of Dauphin ,51.1008,-100.0525,1001,Dauphin,,US/Central,MB,Manitoba,CA,Canada,
1123,CYDP,Nain Airport - SE of Nain,56.5492,-61.6803,23,Nain,,Canada/Newfoundland,NF,Newfoundland,CA,Canada,
1124,CYDQ,Dawson Creek Airport - SE of Dawson Creek,55.7422,-120.1831,2149,Dawson Creek,,US/Pacific,BC,British Columbia,CA,Canada,
1125,CYDR,NW of Lac Seul Post,50.3667,-92.5333,2018,Lac Seul Post,,US/Eastern,ON,Ontario,CA,Canada,
1126,CYED,Edmonton Namao - NE of Edmonto,53.6666,-113.4663,2257,Edmonton,,US/Mountain,AB,Alberta,CA,Canada,
1127,CYEG,Edmonton International Airport - West of Nisku,53.3097,-113.5797,2372,Nisku,,US/Mountain,AB,Alberta,CA,Canada,
1128,CYEK,Arviat Airport - sw OF aRVIAT,61.0942,-94.0708,33,Arviat,,US/Central,NT,Northwest Territories,CA,Canada,
1129,CYEL,Elliot Lake - SE of Elliot Lake,46.3514,-82.5614,1086,Elliot Lake,,US/Eastern,ON,Ontario,CA,Canada,
1130,CYEN,Estevan Municipal Airport NE of Estevan,49.2103,-102.9658,1906,Estevan,,Canada/Central,SK,Saskatchewan,CA,Canada,
1131,CYET,Edson Airport - SW of Edson,53.5789,-116.465,3035,Edson,,US/Mountain,AB,Alberta,CA,Canada,
1132,CYEU,NE of Eureka,79.9947,-85.8142,256,Eureka,,US/Mountain,NT,Northwest Territories,CA,Canada,
1133,CYEV,Inuvik Airport - SE of Inuvik,68.3088,-133.5001,223,Inuvik,,US/Mountain,NT,Northwest Territories,CA,Canada,
1134,CYFB,Iqaluit Airport - NW of Iqaluit,63.7564,-68.5558,112,Iqaluit,,Canada/Atlantic,NT,Northwest Territories,CA,Canada,
1135,CYFC,Greater Fredericton Airport - SE of Fredericton,45.8722,-66.5278,69,Fredericton,,Canada/Atlantic,XX,XXX,CA,Canada,
1138,CYFO,Flin Flon Airport - NE of Schist Lake,54.6781,-101.6817,997,Schist Lake,,US/Central,MB,Manitoba,CA,Canada,
1139,CYFR,NW of Fort Resolution,61.1808,-113.6897,525,Fort Resolution,,US/Mountain,NT,Northwest Territories,CA,Canada,
1140,CYFS,Fort Simpson Airport - SE of Fort Simpsom,61.7603,-121.2367,554,Fort Simpson,,US/Mountain,NT,Northwest Territories,CA,Canada,
1141,CYFT,Makkovik Airport - NW of Makkovik,55.0772,-59.1875,233,Makkovik,,Canada/Newfoundland,NF,Newfoundland,CA,Canada,
1142,CYGE,Golden Airport - NW of Golden,51.2992,-116.9822,2575,Golden,,US/Pacific,BC,British Columbia,CA,Canada,
1143,CYGH,Fort Good Hope Airport - SW of Fort Good Hope,66.2408,-128.6508,268,Fort Good Hope,,US/Mountain,NT,Northwest Territories,CA,Canada,
1144,CYGK,Norman Rogers Airport - SW of Kingston,44.2253,-76.5969,305,Kingston,,US/Eastern,ON,Ontario,CA,Canada,
1145,CYGL,La Grande Riviere - SW of Radisson,53.6253,-77.7042,640,Radisson,,US/Eastern,QC,Quebec,CA,Canada,
1146,CYGM,SW of Gimli,50.6281,-97.0433,755,Gimli,,US/Central,MB,Manitoba,CA,Canada,
1147,CYGP,Gaspe Airport - SW of Gaspe,48.7769,-64.4781,112,Gaspe,,US/Eastern,QC,Quebec,CA,Canada,
1148,CYGQ,Geraldton District Airport - NE of Geraldton,49.7828,-86.9306,1145,Geraldton,,US/Eastern,ON,Ontario,CA,Canada,
1149,CYGR,Iles De La Madelein Airport - SW of Grande-Entree,47.4247,-61.7781,33,Grande-Entree,,US/Eastern,QC,Quebec,CA,Canada,
1150,CYGT,Igloolik Airport - SW of Iglook,69.3647,-81.8165,167,Igloolik,,US/Mountain,NT,Northwest Territories,CA,Canada,
1151,CYGV,NW of Havre Saint Pierre,50.2819,-63.6114,124,Havre Saint Pierre,,US/Eastern,QC,Quebec,CA,Canada,
1152,CYGW,Kuujjuarapik Airport - NW of Poste-de-la-Baleine,55.2819,-77.7653,33,Poste-de-la-Baleine,,US/Eastern,QC,Quebec,CA,Canada,
1153,CYGX,Gillam Airport - SW of Gillam,56.3575,-94.7106,476,Gillam,,US/Central,MB,Manitoba,CA,Canada,
1154,CYHA,Quaqtaq Airport - SE of Quaqtaq,61.046,-69.6177,105,Quaqtaq,,US/Eastern,QC,Quebec,CA,Canada,
1155,CYHB,SE of Hudson Bay,52.8167,-102.3114,1175,Hudson Bay,,Canada/Central,SK,Saskatchewan,CA,Canada,
1156,CYHD,Dryden Regional Airport - NE of Dryden,49.8317,-92.7442,1355,Dryden,,US/Eastern,ON,Ontario,CA,Canada,
1157,CYHE,Hope Airport - SW of Hope,49.3699,-121.4936,128,Hope,,US/Pacific,BC,British Columbia,CA,Canada,
1158,CYHH,Nemiscau Airport - NE of Nemiscau,51.7,-76.1167,801,Nemiscau,,US/Eastern,QC,Quebec,CA,Canada,
1159,CYHI,   Ulukhaktok - Holman Island Airport - NE of Holman ,70.7728,-117.8061,118,Holman,,US/Mountain,NT,Northwest Territories,CA,Canada,
1160,CYHK,Gjoa Haven Airport- NE of Gjoa Haven,68.6356,-95.8497,151,Gjoa Haven,,US/Central,NT,Northwest Territories,CA,Canada,
1161,CYHM,Hamilton Airport - SW of Hamilton,43.172,-79.934,781,Hamilton,14302,US/Eastern,ON,Ontario,CA,Canada,
1162,CYHU,Montreal Saint Hubert Airport - SE of Longueil,45.5175,-73.4169,89,Montreal,,US/Eastern,QC,Quebec,CA,Canada,
1163,CYHY,Hay River Airport - NE of Hay River,60.8397,-115.7828,541,Hay River,,US/Mountain,NT,Northwest Territories,CA,Canada,
1164,CYHZ,Halifax Intl - NE of Halifax,44.8808,-63.5086,476,Halifax,,Canada/Atlantic,NS,Nova Scotia,CA,Canada,
1165,CYID,Digby Airport - SW of Halifax,45.5456,-66.7889,499,Halifax,,Canada/Atlantic,NS,Nova Scotia,CA,Canada,
1166,CYIK,Ivujivik Airport - NW of Ivujivik,62.4167,-77.95,138,Ivujivik,,US/Eastern,QC,Quebec,CA,Canada,
1167,CYIO,Pond Inlet Airport - SW of Pond Inlet,72.6894,-77.9689,203,Pond Inlet,,US/Central,NT,Northwest Territories,CA,Canada,
1169,CYJF,Fort Liard Airport - SW of Fort Liard,60.2356,-123.47,705,Fort Liard,,US/Mountain,NT,Northwest Territories,CA,Canada,
1170,CYJT,Stephenville Int'l Airport - SE of Stephenville,48.5453,-58.5639,85,Stephenville,,US/Central,NF,Newfoundland,CA,Canada,
1171,CYKA,Kamloops Airport - NW of Kamloops,50.7022,-120.4419,1132,Kamloops,,US/Pacific,BC,British Columbia,CA,Canada,
1172,CYKB,SW of Kangiqsualujjuaq,58.5075,-65.9875,190,Kangiqsualujjuaq,,US/Eastern,QC,Quebec,CA,Canada,
1173,CYKD,Aklavik Airport - SE of Aklavik,68.2233,-135.0058,23,Aklavik,,US/Mountain,NT,Northwest Territories,CA,Canada,
1174,CYKF,Waterloo Int'l Airport - SE of Waterloo  ,43.47,-80.38,1040,Waterloo,,US/Eastern,ON,Ontario,CA,Canada,
1175,CYKG,SE of Kangiqsujuaq,61.5885,-71.9295,495,Kangiqsujuaq,,US/Eastern,QC,Quebec,CA,Canada,
1176,CYKJ,Key Lake - SW of Cree Lake,57.2564,-105.6175,1686,Cree Lake,,Canada/Central,SK,Saskatchewan,CA,Canada,
1177,CYKL,Schefferville Airport,54.8053,-66.8053,1709,Schefferville,,Canada/Newfoundland,NF,Newfoundland,CA,Canada,
1178,CYKO,Akulivik Airport - NE of Cape Smith,60.8186,-78.1486,75,Cape Smith,,US/Eastern,QC,Quebec,CA,Canada,
1179,CYKQ,Waskaganish Airport - SW of Fort Rupert,51.4733,-78.7584,75,Fort Rupert,,US/Eastern,QC,Quebec,CA,Canada,
1180,CYKY,Kindersley Airport - NW of Kindrsley,51.5174,-109.1746,2277,Kindersley,,Canada/Central,SK,Saskatchewan,CA,Canada,
1181,CYKZ,Buttonville Airport - NW of Markham,43.866,-79.3681,650,Markham,14174,US/Eastern,ON,Ontario,CA,Canada,
1182,CYLA,Apaluk - NW of Kuujjuaq,59.2957,-69.5997,115,Kuujjuaq,,US/Eastern,QC,Quebec,CA,Canada,
1183,CYLC,Lake Harbour Airport - NW of Kimmirut,62.85,-69.8833,174,Kimmirut ,,US/Central,NT,Northwest Territories,CA,Canada,
1184,CYLD,Chapleau Airport - SE of Chapleau,47.82,-83.3467,1470,Chapleau,,US/Eastern,ON,Ontario,CA,Canada,
1185,CYLJ,Meadow Lake Airport - SW of Meadow Lake,54.1253,-108.5228,1575,Meadow Lake,,Canada/Central,SK,Saskatchewan,CA,Canada,
1186,CYLK,NE of Lutselk'e,62.4182,-110.6822,587,Lutselk'e,,US/Central,NT,Northwest Territories,CA,Canada,
1187,CYLL,Lloydminster Airport - NW of Lloydminster,53.3105,-110.0741,2194,Lloydminster,,Canada/Central,SK,Saskatchewan,CA,Canada,
1188,CYLT,Alert Airport - NE of Alert,82.5178,-62.2806,102,Alert,,US/Central,NT,Northwest Territories,CA,Canada,
1189,CYLU,NW of Kangiqsualujjuaq,58.7114,-65.9928,197,Kangiqsualujjuaq,,US/Eastern,,,CA,Canada,
1190,CYLW,Kelowna International Airport - NE of Kelowna,49.9535,-119.3748,1411,Kelowna,,US/Pacific,BC,British Columbia,CA,Canada,
1191,CYMA,Mayo Airport - NE of Mayo,63.6164,-135.8683,1654,Mayo,,US/Pacific,YT,Yukon,CA,Canada,
1192,CYMD,Mould Bay Airport - SE of Mould Bay,76.2333,-119.3333,39,Mould Bay,,US/Mountain,NT,Northwest Territories,CA,Canada,
1193,CYMH,SW of Mary's Harbour,52.3028,-55.8478,39,Mary's Harbour,,Canada/Newfoundland,NF,Newfoundland,CA,Canada,
1194,CYMJ,Canadian Forces Base - Moose Jaw Military - SW of Moose Jaw,50.3303,-105.5592,1893,Moose Jaw,,Canada/Central,SK,Saskatchewan,CA,Canada,
1195,CYML,Charlevoix Murray Bay Airport - NW of Saint-Irenee ,47.5975,-70.2239,978,Saint-Irenee,,US/Eastern,QC,Quebec,CA,Canada,
1196,CYML,Charlevoix Murray Bay Airport,47.5975,-70.2239,978,Charlevoix Murray Bay,,US/Eastern,QC,Quebec,CA,Canada,
1197,CYMO,NE of Moosonee,51.27,-80.65,30,Moosonee,,US/Eastern,ON,Ontario,CA,Canada,
1198,CYMT,Chibougamau-Chapais Airport SE of Chapais,49.7719,-74.5281,1270,Chibougamau-Chapais,,US/Eastern,QC,Quebec,CA,Canada,
1199,CYMU,Umiujaq - NE of Poste-de-la-Baleine,56.5362,-76.5182,233,Poste-de-la-Baleine,,US/Eastern,QC,Quebec,CA,Canada,
1200,CYMX,Montreal Mirabel Int'l Airport - NW of Mirabel,45.6795,-74.0387,269,Mirabel,12923,US/Eastern,QC,Quebec,CA,Canada,
1201,CYNA,Natashquan Airport,50.19,-61.7889,39,Natashquan,,US/Eastern,QC,Quebec,CA,Canada,
1202,CYNC,Wemindji Airport - NW of Wemindji,53.0108,-78.8302,46,Wemindji,,US/Eastern,QC,Quebec,CA,Canada,
1203,CYND,Gatineau Airport - NE of Ottawa,45.5216,-75.5635,211,Gatineau,,US/Eastern,QC,Quebec,CA,Canada,
1204,CYNE,Norway House Airport - SW of Norway House,53.9577,-97.8441,731,Norway House,,US/Central,MB,Manitoba,CA,Canada,
1205,CYNM,Matagami Airport - SW of Matagami,49.7616,-77.8277,918,Matagami,,US/Eastern,QC,Quebec,CA,Canada,
1206,CYOA,Ekati - NE of Rae Lakes,64.6988,-110.6147,1539,Rae Lakes,,US/Mountain,NT,Northwest Territories,CA,Canada,
1207,CYOC,Old Crow Airport - SW of Old Crow,67.5705,-139.8391,824,Old Crow,,US/Pacific,YT,Yukon,CA,Canada,
1208,CYOD,Canadian Forces Base Cold Lake ,54.4072,-110.2783,1775,Medley,,US/Mountain,AB,Alberta,CA,Canada,
1209,CYOJ,High Level Airport,58.6213,-117.1647,1110,High Level,,US/Mountain,AB,Alberta,CA,Canada,
1210,CYOW,Macdonald-Cartier International Airport - SE of Ottawa,45.3225,-75.6692,374,Ottawa,13694,US/Eastern,ON,Ontario,CA,Canada,
1211,CYOY,Valcartier Heliport,46.9025,-71.5061,550,Valcartier,,US/Eastern,QC,Quebec,CA,Canada,
1212,CYPA,Prince Albert Airport - NE of PrinceAlbert,53.2141,-105.6727,1405,Prince Albert,,Canada/Central,SK,Saskatchewan,CA,Canada,
1213,CYPB,Port Alberni Airport - SE of Port Alberni,49.4721,-124.6847,8,Port Alberni,,US/Pacific,BC,British Columbia,CA,Canada,
1214,CYPC,Paulatuk Airport - NW of Paulatuk,69.3611,-124.0586,18,Paulatuk,,US/Mountain,NT,Northwest Territories,CA,Canada,
1215,CYPD,Port Hawkesbury Airport -  NW of Port Hawkesbury,45.6566,-61.368,377,Port Hawkesbury,,Canada/Atlantic,NS,Nova Scotia,CA,Canada,
1216,CYPE,Peace River Airport - SW of Peace River,56.2269,-117.4472,1873,Peace River,,US/Mountain,AB,Alberta,CA,Canada,
1217,CYPG,SE of Portage La Prairie,49.903,-98.2738,885,Portage La Prairie,,US/Central,MB,Manitoba,CA,Canada,
1218,CYPH,NE of Inukjuak,58.4716,-78.0772,83,Inukjuak,,US/Eastern,QC,Quebec,CA,Canada,
1219,CYPL,SW of Pickle Lake,51.4463,-90.2141,1267,Pickle Lake,,US/Central,ON,Ontario,CA,Canada,
1220,CYPN,NE of Port Menier,49.8363,-64.2886,167,Port Menier,,US/Eastern,QC,Quebec,CA,Canada,
1221,CYPQ,SW of Peterborough Airport,44.23,-78.3633,628,Peterborough,,US/Eastern,ON,Ontario,CA,Canada,
1222,CYPR,Prince Rupert Airport - SW of Prince Rupert,54.2861,-130.4447,116,Prince Rupert,,US/Pacific,BC,British Columbia,CA,Canada,
1223,CYPW,Powell River Airport - NE of Powell River,49.8477,-124.4991,369,Powell River,,US/Pacific,BC,British Columbia,CA,Canada,
1224,CYPX,NE of Povungnituq,60.0505,-77.2869,74,Povungnituq,,US/Eastern,QC,Quebec,CA,Canada,
